[
  {
    "name": "全家基隆車站店",
    "pkey": "018683",
    "tel": "02-24259160",
    "POSTel": "02-77303054",
    "lat": 25.134339,
    "lng": 121.739539,
    "city": "基隆市",
    "area": "仁愛區",
    "road": "中山一路",
    "address": "基隆市仁愛區中山一路 16 之 1 號",
    "service": [
      "sweat-potato",
      "single-famiice",
      "charge-spot"
    ]
  },
  {
    "name": "全家基隆鑫仁二店",
    "pkey": "019621",
    "tel": "02-24259022",
    "POSTel": "02-77163057",
    "lat": 25.128818,
    "lng": 121.744854,
    "city": "基隆市",
    "area": "仁愛區",
    "road": "仁二路",
    "address": "基隆市仁愛區仁二路 198 號壹樓及地下室",
    "service": [
      "baked-potato",
      "charge-spot"
    ]
  },
  {
    "name": "全家基隆仁三店",
    "pkey": "017147",
    "tel": "02-24286905",
    "POSTel": "02-77094069",
    "lat": 25.128847,
    "lng": 121.742046,
    "city": "基隆市",
    "area": "仁愛區",
    "road": "仁三路",
    "address": "基隆市仁愛區仁三路 59 號壹樓",
    "service": [
      "sweat-potato",
      "rest-area",
      "charge-spot"
    ]
  },
  {
    "name": "全家基隆廟口店",
    "pkey": "019180",
    "tel": "02-24289166",
    "POSTel": "02-77230578",
    "lat": 25.128415,
    "lng": 121.742868,
    "city": "基隆市",
    "area": "仁愛區",
    "road": "仁三路",
    "address": "基隆市仁愛區仁德里仁三路 33 號一樓",
    "service": [
      "charge-spot"
    ]
  },
  {
    "name": "全家基隆仁四店",
    "pkey": "021517",
    "tel": "02-24265932",
    "POSTel": "02-77230577",
    "lat": 25.128379,
    "lng": 121.741188,
    "city": "基隆市",
    "area": "仁愛區",
    "road": "仁四路",
    "address": "基隆市仁愛區仁四路 52 號 1 樓",
    "service": [
      "sweat-potato",
      "rest-area"
    ]
  },
  {
    "name": "全家基隆鑫忠孝店",
    "pkey": "018930",
    "tel": "02-24287939",
    "POSTel": "02-77163708",
    "lat": 25.130108,
    "lng": 121.739341,
    "city": "基隆市",
    "area": "仁愛區",
    "road": "孝三路",
    "address": "基隆市仁愛區孝三路 54 號壹樓",
    "service": [
      "charge-spot"
    ]
  },
  {
    "name": "全家基隆新站前店",
    "pkey": "019437",
    "tel": "02-24273646",
    "POSTel": "02-77230579",
    "lat": 25.131325,
    "lng": 121.739715,
    "city": "基隆市",
    "area": "仁愛區",
    "road": "忠一路",
    "address": "基隆市仁愛區忠一路 19 號",
    "service": [
      "sweat-potato"
    ]
  },
  {
    "name": "全家基隆鑫忠二店",
    "pkey": "019391",
    "tel": "02-24259100",
    "POSTel": "02-77134976",
    "lat": 25.130023,
    "lng": 121.739992,
    "city": "基隆市",
    "area": "仁愛區",
    "road": "忠二路",
    "address": "基隆市仁愛區忠二路 15 號壹樓",
    "service": [
      "charge-spot",
      "picard"
    ]
  },
  {
    "name": "全家基隆仁愛店",
    "pkey": "018601",
    "tel": "02-24259270",
    "POSTel": "02-77462480",
    "lat": 25.128972,
    "lng": 121.744032,
    "city": "基隆市",
    "area": "仁愛區",
    "road": "愛四路",
    "address": "基隆市仁愛區愛四路 56 號 1 樓及夾層",
    "service": [
      "sweat-potato",
      "rest-area",
      "two-famiice",
      "charge-spot"
    ]
  },
  {
    "name": "全家基隆精一店",
    "pkey": "018477",
    "tel": "02-24249183",
    "POSTel": "02-77230581",
    "lat": 25.125948,
    "lng": 121.741068,
    "city": "基隆市",
    "area": "仁愛區",
    "road": "精一路",
    "address": "基隆市仁愛區精一路 41 號 1 樓",
    "service": [
      "sweat-potato",
      "charge-spot"
    ]
  },
  {
    "name": "全家基隆劉銘傳店",
    "pkey": "021602",
    "tel": "02-24259272",
    "POSTel": "02-",
    "lat": 25.127539,
    "lng": 121.750882,
    "city": "基隆市",
    "area": "仁愛區",
    "road": "劉銘傳路",
    "address": "基隆市仁愛區劉銘傳路 15 號壹樓",
    "service": [
      "single-famiice",
      "classic-game-broadcast"
    ]
  },
  {
    "name": "全家基隆新正信店",
    "pkey": "015670",
    "tel": "02-24665413",
    "POSTel": "02-77337534",
    "lat": 25.132178,
    "lng": 121.760135,
    "city": "基隆市",
    "area": "信義區",
    "road": "正信路",
    "address": "基隆市信義區正信路 181 號",
    "service": [
      "sweat-potato",
      "polaroid",
      "rest-area",
      "charge-spot",
      "picard",
      "steam-fresh"
    ]
  },
  {
    "name": "全家基隆東信店",
    "pkey": "020367",
    "tel": "02-24669537",
    "POSTel": "02-77230679",
    "lat": 25.127675,
    "lng": 121.767724,
    "city": "基隆市",
    "area": "信義區",
    "road": "東信路",
    "address": "基隆市信義區東信路 5 號",
    "service": [
      "sweat-potato",
      "rest-area"
    ]
  },
  {
    "name": "全家基隆信一店",
    "pkey": "022465",
    "tel": "02-24241255",
    "POSTel": "02-77230680",
    "lat": 25.129631,
    "lng": 121.74677,
    "city": "基隆市",
    "area": "信義區",
    "road": "信一路",
    "address": "基隆市信義區信一路 148 號",
    "service": [
      "sweat-potato",
      "single-famiice",
      "rest-area",
      "baked-potato",
      "charge-spot",
      "smart-coffee",
      "picard",
      "spicy-egg",
      "recyclable-cup",
      "classic-game-broadcast"
    ]
  },
  {
    "name": "全家基隆信義店",
    "pkey": "016213",
    "tel": "02-24255383",
    "POSTel": "02-77337634",
    "lat": 25.129659,
    "lng": 121.751548,
    "city": "基隆市",
    "area": "信義區",
    "road": "信二路",
    "address": "基隆市信義區信二路 236-2 號",
    "service": [
      "sweat-potato",
      "toilet",
      "rest-area",
      "charge-spot"
    ]
  },
  {
    "name": "全家基隆深美店",
    "pkey": "021078",
    "tel": "02-24685554",
    "POSTel": "02-77413010",
    "lat": 25.136516,
    "lng": 121.778702,
    "city": "基隆市",
    "area": "信義區",
    "road": "教忠街",
    "address": "基隆市信義區教忠街 108 號壹樓",
    "service": [
      "baked-potato",
      "picard",
      "classic-game-broadcast"
    ]
  },
  {
    "name": "全家基隆新深溪店",
    "pkey": "017150",
    "tel": "02-24664970",
    "POSTel": "02-77397057",
    "lat": 25.132781,
    "lng": 121.782039,
    "city": "基隆市",
    "area": "信義區",
    "road": "深溪路",
    "address": "基隆市信義區深溪路 59 號",
    "service": [
      "sweat-potato",
      "toilet",
      "rest-area",
      "charge-spot"
    ]
  },
  {
    "name": "全家基隆新澳坑店",
    "pkey": "016283",
    "tel": "02-24683722",
    "POSTel": "02-77463255",
    "lat": 25.126147,
    "lng": 121.78573,
    "city": "基隆市",
    "area": "信義區",
    "road": "深澳坑路",
    "address": "基隆市信義區深澳坑路 107 號",
    "service": [
      "sweat-potato",
      "toilet",
      "rest-area",
      "charge-spot"
    ]
  },
  {
    "name": "全家基隆新祥豐店",
    "pkey": "014328",
    "tel": "02-24627260",
    "POSTel": "02-77230567",
    "lat": 25.151282,
    "lng": 121.771717,
    "city": "基隆市",
    "area": "中正區",
    "road": "中正路",
    "address": "基隆市中正區中正路 623 號壹樓",
    "service": [
      "sweat-potato",
      "polaroid",
      "single-famiice",
      "rest-area",
      "costco-shelf",
      "charge-spot"
    ]
  },
  {
    "name": "全家基隆正港店",
    "pkey": "018271",
    "tel": "02-24636316",
    "POSTel": "02-77230568",
    "lat": 25.151033,
    "lng": 121.766893,
    "city": "基隆市",
    "area": "中正區",
    "road": "中正路",
    "address": "基隆市中正區中正路 644 號",
    "service": [
      "sweat-potato",
      "rest-area"
    ]
  },
  {
    "name": "全家基隆鑫港店",
    "pkey": "018850",
    "tel": "02-24275332",
    "POSTel": "02-77230817",
    "lat": 25.132779,
    "lng": 121.74454,
    "city": "基隆市",
    "area": "中正區",
    "road": "中正路",
    "address": "基隆市中正區中正路 18 號壹樓",
    "service": [
      "baked-potato",
      "charge-spot",
      "picard",
      "spicy-egg"
    ]
  },
  {
    "name": "全家基隆新中船店",
    "pkey": "022609",
    "tel": "02-24245729",
    "POSTel": "02-77337952",
    "lat": 25.137445,
    "lng": 121.751056,
    "city": "基隆市",
    "area": "中正區",
    "road": "中船路",
    "address": "基隆市中正區中船路 82 號",
    "service": [
      "sweat-potato",
      "polaroid",
      "rest-area",
      "charge-spot"
    ]
  },
  {
    "name": "全家基隆富港店",
    "pkey": "018224",
    "tel": "02-24699625",
    "POSTel": "02-77463642",
    "lat": 25.145926,
    "lng": 121.783337,
    "city": "基隆市",
    "area": "中正區",
    "road": "北寧路",
    "address": "基隆市中正區北寧路 250-8 號 1、2 樓",
    "service": [
      "sweat-potato",
      "toilet",
      "rest-area",
      "two-famiice",
      "chubby-famiice",
      "charge-spot",
      "fresh-brew-tea",
      "spicy-egg",
      "gogoro-battery-exchange",
      "steam-fresh"
    ]
  },
  {
    "name": "全家基隆海大店",
    "pkey": "014688",
    "tel": "02-24636566",
    "POSTel": "02-77462481",
    "lat": 25.150867,
    "lng": 121.772389,
    "city": "基隆市",
    "area": "中正區",
    "road": "北寧路",
    "address": "基隆市中正區北寧路 2 號",
    "service": [
      "sweat-potato",
      "two-famiice",
      "charge-spot",
      "steam-fresh"
    ]
  },
  {
    "name": "全家基隆海洋店",
    "pkey": "021953",
    "tel": "02-24636575",
    "POSTel": "02-77304105",
    "lat": 25.150867,
    "lng": 121.772389,
    "city": "基隆市",
    "area": "中正區",
    "road": "北寧路",
    "address": "基隆市中正區北寧路 2 號",
    "service": [
      "sweat-potato",
      "rest-area",
      "two-famiice",
      "baked-potato",
      "spicy-egg",
      "steam-fresh"
    ]
  },
  {
    "name": "全家基隆二信店",
    "pkey": "020866",
    "tel": "02-24634966",
    "POSTel": "02-77413006",
    "lat": 25.143869,
    "lng": 121.76974,
    "city": "基隆市",
    "area": "中正區",
    "road": "立德路",
    "address": "基隆市中正區立德路 243 號壹樓",
    "service": [
      "classic-game-broadcast"
    ]
  },
  {
    "name": "全家基隆新和一店",
    "pkey": "019434",
    "tel": "02-24635157",
    "POSTel": "02-77230570",
    "lat": 25.155053,
    "lng": 121.765795,
    "city": "基隆市",
    "area": "中正區",
    "road": "和一路",
    "address": "基隆市中正區和一路 110 號",
    "service": [
      "sweat-potato",
      "single-famiice",
      "rest-area",
      "baked-potato",
      "charge-spot"
    ]
  },
  {
    "name": "全家基隆欣豐店",
    "pkey": "020465",
    "tel": "02-24699472",
    "POSTel": "02-77305170",
    "lat": 25.135359,
    "lng": 121.785663,
    "city": "基隆市",
    "area": "中正區",
    "road": "新豐街",
    "address": "基隆市中正區新豐街 381 號",
    "service": [
      "baked-potato",
      "picard"
    ]
  },
  {
    "name": "全家基隆新義二店",
    "pkey": "020282",
    "tel": "02-24267442",
    "POSTel": "02-77304103",
    "lat": 25.131062,
    "lng": 121.745424,
    "city": "基隆市",
    "area": "中正區",
    "road": "義二路",
    "address": "基隆市中正區義二路 34 號",
    "service": [
      "sweat-potato",
      "polaroid",
      "rest-area",
      "two-famiice",
      "charge-spot"
    ]
  },
  {
    "name": "全家基隆觀海店",
    "pkey": "020469",
    "tel": "02-24606545",
    "POSTel": "02-77230572",
    "lat": 25.137099,
    "lng": 121.795151,
    "city": "基隆市",
    "area": "中正區",
    "road": "觀海街",
    "address": "基隆市中正區砂子里觀海街 136 號 138 號一樓",
    "service": [
      "sweat-potato",
      "polaroid",
      "toilet",
      "rest-area",
      "fresh-vegetables",
      "costco-shelf",
      "charge-spot",
      "picard",
      "sohot-fresh-snacks"
    ]
  },
  {
    "name": "全家基隆觀山店",
    "pkey": "015396",
    "tel": "02-24607005",
    "POSTel": "02-77303721",
    "lat": 25.138375,
    "lng": 121.793451,
    "city": "基隆市",
    "area": "中正區",
    "road": "觀海街",
    "address": "基隆市中正區觀海街 61 號",
    "service": [
      "toilet",
      "rest-area",
      "charge-spot"
    ]
  },
  {
    "name": "全家基隆中山店",
    "pkey": "021863",
    "tel": "02-24285091",
    "POSTel": "02-77230559",
    "lat": 25.13809,
    "lng": 121.740313,
    "city": "基隆市",
    "area": "中山區",
    "road": "中山二路",
    "address": "基隆市中山區中山二路 53 號、 53-1 號",
    "service": [
      "sweat-potato",
      "rest-area",
      "two-famiice",
      "charge-spot",
      "gogoro-battery-exchange"
    ]
  },
  {
    "name": "全家基隆囍旺店",
    "pkey": "021599",
    "tel": "02-24370189",
    "POSTel": "02-77231410",
    "lat": 25.148235,
    "lng": 121.720787,
    "city": "基隆市",
    "area": "中山區",
    "road": "中和路",
    "address": "基隆市中山區中和路 85 巷 12 號 1、2 樓",
    "service": [
      "sweat-potato",
      "charge-spot"
    ]
  },
  {
    "name": "全家基隆鑫大慶店",
    "pkey": "021686",
    "tel": "02-24371195",
    "POSTel": "02-77462570",
    "lat": 25.149806,
    "lng": 121.716965,
    "city": "基隆市",
    "area": "中山區",
    "road": "中和路",
    "address": "基隆市中山區中和路 168 巷 2 弄 17 號",
    "service": [
      "sweat-potato",
      "polaroid",
      "toilet",
      "rest-area",
      "charge-spot"
    ]
  },
  {
    "name": "全家基隆華復店",
    "pkey": "017863",
    "tel": "02-24282937",
    "POSTel": "02-77230563",
    "lat": 25.145476,
    "lng": 121.738675,
    "city": "基隆市",
    "area": "中山區",
    "road": "中華路",
    "address": "基隆市中山區通化里中華路 2 號復旦路 1 號 3 號一樓",
    "service": [
      "sweat-potato",
      "rest-area",
      "charge-spot",
      "picard"
    ]
  },
  {
    "name": "全家基隆樂華店",
    "pkey": "015669",
    "tel": "02-24285782",
    "POSTel": "02-77230562",
    "lat": 25.140642,
    "lng": 121.727389,
    "city": "基隆市",
    "area": "中山區",
    "road": "西定路",
    "address": "基隆市中山區西康里西定路 467 號 1 樓",
    "service": [
      "sweat-potato",
      "rest-area"
    ]
  },
  {
    "name": "全家基隆經國店",
    "pkey": "010822",
    "tel": "02-24374320",
    "POSTel": "02-77230566",
    "lat": 25.150676,
    "lng": 121.727983,
    "city": "基隆市",
    "area": "中山區",
    "road": "復興路",
    "address": "基隆市中山區復興路 336-1 號",
    "service": [
      "sweat-potato",
      "polaroid",
      "toilet",
      "rest-area",
      "two-famiice",
      "baked-potato",
      "charge-spot",
      "spicy-egg",
      "steam-fresh",
      "sohot-fresh-snacks"
    ]
  },
  {
    "name": "全家基隆新復興店",
    "pkey": "019438",
    "tel": "02-24366769",
    "POSTel": "02-77463003",
    "lat": 25.145978,
    "lng": 121.726615,
    "city": "基隆市",
    "area": "中山區",
    "road": "復興路",
    "address": "基隆市中山區復興路 204-1 號",
    "service": [
      "sweat-potato",
      "rest-area",
      "baked-potato",
      "charge-spot"
    ]
  },
  {
    "name": "全家基隆新安和店",
    "pkey": "016733",
    "tel": "02-24341775",
    "POSTel": "02-77337951",
    "lat": 25.125775,
    "lng": 121.723673,
    "city": "基隆市",
    "area": "安樂區",
    "road": "安和一街",
    "address": "基隆市安樂區安和一街 124 號",
    "service": [
      "rest-area",
      "fami-laundry"
    ]
  },
  {
    "name": "全家基隆新樂強店",
    "pkey": "017009",
    "tel": "02-24254734",
    "POSTel": "02-77137228",
    "lat": 25.127989,
    "lng": 121.73248,
    "city": "基隆市",
    "area": "安樂區",
    "road": "安樂路一段",
    "address": "基隆市安樂區安樂路一段 206 號 1 樓",
    "service": [
      "sweat-potato",
      "rest-area",
      "charge-spot"
    ]
  },
  {
    "name": "全家基隆長庚店",
    "pkey": "022103",
    "tel": "02-24326001",
    "POSTel": "02-77230670",
    "lat": 25.120803,
    "lng": 121.723493,
    "city": "基隆市",
    "area": "安樂區",
    "road": "安樂路二段",
    "address": "基隆市安樂區安樂路二段 157 號",
    "service": [
      "sweat-potato",
      "single-famiice",
      "mont-blanc-famiice",
      "baked-potato",
      "charge-spot"
    ]
  },
  {
    "name": "全家基隆武勝店",
    "pkey": "017246",
    "tel": "02-24328788",
    "POSTel": "02-77462262",
    "lat": 25.148534,
    "lng": 121.699493,
    "city": "基隆市",
    "area": "安樂區",
    "road": "武訓街",
    "address": "基隆市安樂區武訓街 72 號壹樓",
    "service": [
      "sweat-potato",
      "toilet",
      "rest-area",
      "spicy-egg"
    ]
  },
  {
    "name": "全家基隆武嶺店",
    "pkey": "016926",
    "tel": "02-24335573",
    "POSTel": "02-77230672",
    "lat": 25.138508,
    "lng": 121.710208,
    "city": "基隆市",
    "area": "安樂區",
    "road": "武嶺街",
    "address": "基隆市安樂區武嶺街 181-6 號 1 樓",
    "service": [
      "sweat-potato",
      "single-famiice",
      "toilet",
      "rest-area",
      "charge-spot",
      "spicy-egg"
    ]
  },
  {
    "name": "全家基隆情人湖店",
    "pkey": "014998",
    "tel": "02-24326530",
    "POSTel": "02-77230673",
    "lat": 25.149254,
    "lng": 121.707775,
    "city": "基隆市",
    "area": "安樂區",
    "road": "基金一路",
    "address": "基隆市安樂區基金一路 208 巷 200 號 B1",
    "service": [
      "sweat-potato",
      "rest-area",
      "baked-potato",
      "charge-spot",
      "spicy-egg"
    ]
  },
  {
    "name": "全家基隆新國揚店",
    "pkey": "016317",
    "tel": "02-34012842",
    "POSTel": "02-77096483",
    "lat": 25.137979,
    "lng": 121.717592,
    "city": "基隆市",
    "area": "安樂區",
    "road": "基金一路",
    "address": "基隆市安樂區基金一路 121 巷 14 號",
    "service": [
      "rest-area",
      "fresh-vegetables",
      "picard"
    ]
  },
  {
    "name": "全家基隆萬金店",
    "pkey": "017089",
    "tel": "02-24333875",
    "POSTel": "02-77137229",
    "lat": 25.140588,
    "lng": 121.71172,
    "city": "基隆市",
    "area": "安樂區",
    "road": "基金一路",
    "address": "基隆市安樂區基金一路 146 號之地下室",
    "service": [
      "sweat-potato",
      "polaroid",
      "single-famiice",
      "toilet",
      "rest-area",
      "fresh-vegetables",
      "baked-potato",
      "charge-spot"
    ]
  },
  {
    "name": "全家基隆基金店",
    "pkey": "016993",
    "tel": "02-24329658",
    "POSTel": "02-77230676",
    "lat": 25.156583,
    "lng": 121.695374,
    "city": "基隆市",
    "area": "安樂區",
    "road": "基金三路",
    "address": "基隆市安樂區基金三路 145 號",
    "service": [
      "sweat-potato",
      "single-famiice",
      "rest-area"
    ]
  },
  {
    "name": "全家基隆長樂店",
    "pkey": "022522",
    "tel": "02-24331198",
    "POSTel": "02-77467114",
    "lat": 25.12091,
    "lng": 121.722356,
    "city": "基隆市",
    "area": "安樂區",
    "road": "麥金路",
    "address": "基隆市安樂區麥金路 222 號地下一樓（基隆長庚醫院）",
    "service": [
      "sweat-potato",
      "baked-potato",
      "smart-coffee"
    ]
  },
  {
    "name": "全家基隆金城店",
    "pkey": "016582",
    "tel": "02-34012667",
    "POSTel": "02-77463352",
    "lat": 25.121775,
    "lng": 121.721052,
    "city": "基隆市",
    "area": "安樂區",
    "road": "麥金路",
    "address": "基隆市安樂區麥金路 231-1 號",
    "service": [
      "sweat-potato",
      "rest-area",
      "charge-spot"
    ]
  },
  {
    "name": "全家基隆樂富店",
    "pkey": "016459",
    "tel": "02-24349184",
    "POSTel": "02-77230671",
    "lat": 25.121289,
    "lng": 121.716831,
    "city": "基隆市",
    "area": "安樂區",
    "road": "樂利二街",
    "address": "基隆市安樂區壯觀里樂利二街 62 巷 212 號一樓",
    "service": [
      "sweat-potato",
      "toilet",
      "rest-area"
    ]
  },
  {
    "name": "全家基隆龍騰店",
    "pkey": "021828",
    "tel": "02-24334303",
    "POSTel": "02-77230205",
    "lat": 25.129359,
    "lng": 121.718614,
    "city": "基隆市",
    "area": "安樂區",
    "road": "樂利三街",
    "address": "基隆市安樂區樂利三街 8 巷 16 號底四層",
    "service": [
      "polaroid",
      "rest-area",
      "fresh-vegetables",
      "costco-shelf",
      "charge-spot"
    ]
  },
  {
    "name": "全家基隆新樂群店",
    "pkey": "018585",
    "tel": "02-24337917",
    "POSTel": "02-77304106",
    "lat": 25.126443,
    "lng": 121.715729,
    "city": "基隆市",
    "area": "安樂區",
    "road": "樂利三街",
    "address": "基隆市安樂區樂利三街 128 號",
    "service": [
      "sweat-potato",
      "single-famiice",
      "toilet",
      "rest-area",
      "costco-shelf",
      "charge-spot"
    ]
  },
  {
    "name": "全家基隆樂利店",
    "pkey": "019962",
    "tel": "02-24322426",
    "POSTel": "02-77292537",
    "lat": 25.126775,
    "lng": 121.71245,
    "city": "基隆市",
    "area": "安樂區",
    "road": "樂利三街",
    "address": "基隆市安樂區樂利三街 32 巷 12 號",
    "service": [
      "sweat-potato",
      "rest-area",
      "charge-spot"
    ]
  },
  {
    "name": "全家八堵車站店",
    "pkey": "018557",
    "tel": "02-24567770",
    "POSTel": "02-77231734",
    "lat": 25.108373,
    "lng": 121.72897,
    "city": "基隆市",
    "area": "暖暖區",
    "road": "八堵路",
    "address": "基隆市暖暖區八堵路 142 號",
    "service": [
      "sweat-potato",
      "baked-potato"
    ]
  },
  {
    "name": "全家基隆暖盛店",
    "pkey": "021336",
    "tel": "02-24584927",
    "POSTel": "02-77413011",
    "lat": 25.098533,
    "lng": 121.734792,
    "city": "基隆市",
    "area": "暖暖區",
    "road": "暖暖街",
    "address": "基隆市暖暖區暖暖街 220 號壹樓及夾層",
    "service": [
      "baked-potato",
      "classic-game-broadcast"
    ]
  },
  {
    "name": "全家基隆暖東店",
    "pkey": "021983",
    "tel": "02-24582882",
    "POSTel": "02-77096374",
    "lat": 25.09974,
    "lng": 121.736321,
    "city": "基隆市",
    "area": "暖暖區",
    "road": "暖暖街",
    "address": "基隆市暖暖區暖暖街 163 號",
    "service": [
      "sweat-potato",
      "toilet",
      "rest-area",
      "two-famiice",
      "chubby-famiice",
      "baked-potato",
      "spicy-egg",
      "steam-fresh"
    ]
  },
  {
    "name": "全家基隆暖鑫店",
    "pkey": "021132",
    "tel": "02-24586460",
    "POSTel": "02-77097456",
    "lat": 25.092936,
    "lng": 121.736925,
    "city": "基隆市",
    "area": "暖暖區",
    "road": "暖暖街",
    "address": "基隆市暖暖區暖暖街 461 號壹樓",
    "service": [
      "sweat-potato",
      "toilet",
      "rest-area"
    ]
  },
  {
    "name": "全家基隆暖錠店",
    "pkey": "016023",
    "tel": "02-24594800",
    "POSTel": "02-77230603",
    "lat": 25.098502,
    "lng": 121.751337,
    "city": "基隆市",
    "area": "暖暖區",
    "road": "源遠路",
    "address": "基隆市暖暖區源遠路 189 號",
    "service": [
      "sweat-potato",
      "toilet",
      "rest-area"
    ]
  },
  {
    "name": "全家基隆暖港店",
    "pkey": "021672",
    "tel": "02-24574786",
    "POSTel": "02-77230685",
    "lat": 25.110229,
    "lng": 121.733828,
    "city": "基隆市",
    "area": "暖暖區",
    "road": "過港路",
    "address": "基隆市暖暖區過港路 254 號",
    "service": [
      "rest-area"
    ]
  },
  {
    "name": "全家基隆吉市店",
    "pkey": "020190",
    "tel": "02-24587239",
    "POSTel": "02-77464253",
    "lat": 25.092035,
    "lng": 121.754144,
    "city": "基隆市",
    "area": "暖暖區",
    "road": "碇內街",
    "address": "基隆市暖暖區碇內街 188-9 號壹樓及夾層",
    "service": [
      "toilet",
      "rest-area"
    ]
  },
  {
    "name": "全家七堵工明店",
    "pkey": "017681",
    "tel": "02-24519520",
    "POSTel": "02-77230551",
    "lat": 25.088686,
    "lng": 121.701844,
    "city": "基隆市",
    "area": "七堵區",
    "road": "工建路",
    "address": "基隆市七堵區工建路 1-15 號壹樓",
    "service": [
      "sweat-potato",
      "toilet",
      "rest-area",
      "baked-potato",
      "charge-spot",
      "spicy-egg",
      "classic-game-broadcast"
    ]
  },
  {
    "name": "全家七堵永富店",
    "pkey": "022013",
    "tel": "02-24558170",
    "POSTel": "02-77230552",
    "lat": 25.099258,
    "lng": 121.713875,
    "city": "基隆市",
    "area": "七堵區",
    "road": "永富路",
    "address": "基隆市七堵區永平里永富路 120 號、崇智街 48 號一樓",
    "service": [
      "rest-area",
      "two-famiice",
      "charge-spot"
    ]
  },
  {
    "name": "全家七堵自治店",
    "pkey": "019672",
    "tel": "02-24554377",
    "POSTel": "02-77337902",
    "lat": 25.096878,
    "lng": 121.712473,
    "city": "基隆市",
    "area": "七堵區",
    "road": "自治街",
    "address": "基隆市七堵區自治街 6 號",
    "service": [
      "sweat-potato",
      "rest-area",
      "costco-shelf"
    ]
  },
  {
    "name": "全家七堵新明德店",
    "pkey": "017207",
    "tel": "02-24517467",
    "POSTel": "02-77230556",
    "lat": 25.08838,
    "lng": 121.705335,
    "city": "基隆市",
    "area": "七堵區",
    "road": "明德二路",
    "address": "基隆市七堵區明德二路 15-53 號",
    "service": [
      "rest-area",
      "charge-spot",
      "classic-game-broadcast"
    ]
  },
  {
    "name": "全家七堵東新店",
    "pkey": "021907",
    "tel": "02-27678206",
    "POSTel": "02-",
    "lat": 25.094875,
    "lng": 121.719593,
    "city": "基隆市",
    "area": "七堵區",
    "road": "東新街",
    "address": "基隆市七堵區東新街 67 號壹樓",
    "service": [
      "single-famiice",
      "mont-blanc-famiice",
      "classic-game-broadcast"
    ]
  },
  {
    "name": "全家七堵長安店",
    "pkey": "021481",
    "tel": "02-24519266",
    "POSTel": "02-77136820",
    "lat": 25.074853,
    "lng": 121.695965,
    "city": "基隆市",
    "area": "七堵區",
    "road": "長安街",
    "address": "基隆市七堵區長安街 212 巷 2-4 號一樓及地下室",
    "service": [
      "costco-shelf",
      "spicy-egg"
    ]
  },
  {
    "name": "全家七堵大興店",
    "pkey": "015563",
    "tel": "02-24560059",
    "POSTel": "02-77230557",
    "lat": 25.097449,
    "lng": 121.714274,
    "city": "基隆市",
    "area": "七堵區",
    "road": "南興路",
    "address": "基隆市七堵區南興路 30 號 1 樓",
    "service": [
      "sweat-potato",
      "rest-area"
    ]
  },
  {
    "name": "全家基隆百福店",
    "pkey": "017151",
    "tel": "02-24529098",
    "POSTel": "02-77230553",
    "lat": 25.083758,
    "lng": 121.696215,
    "city": "基隆市",
    "area": "七堵區",
    "road": "福二街",
    "address": "基隆市七堵區百福里福二街 204 號 1 樓",
    "service": [
      "sweat-potato",
      "single-famiice",
      "toilet",
      "rest-area",
      "baked-potato",
      "costco-shelf",
      "charge-spot",
      "classic-game-broadcast"
    ]
  },
  {
    "name": "全家新德店",
    "pkey": "018932",
    "tel": "02-23214351",
    "POSTel": "02-77463163",
    "lat": 25.044475,
    "lng": 121.531597,
    "city": "台北市",
    "area": "中正區",
    "road": "八德路一段",
    "address": "台北市中正區八德路一段 43 巷 2 號",
    "service": [
      "sweat-potato",
      "single-famiice"
    ]
  },
  {
    "name": "全家台大醫院店",
    "pkey": "018527",
    "tel": "02-33223538",
    "POSTel": "02-",
    "lat": 25.040793,
    "lng": 121.518534,
    "city": "台北市",
    "area": "中正區",
    "road": "中山南路",
    "address": "台北市中正區中山南路 7 號 B1 樓",
    "service": [
      "sweat-potato",
      "baked-potato",
      "charge-spot",
      "fresh-brew-tea",
      "steam-fresh",
      "recyclable-cup",
      "sohot-fresh-snacks",
      "classic-game-broadcast"
    ]
  },
  {
    "name": "全家新惠安店",
    "pkey": "021130",
    "tel": "02-23036887",
    "POSTel": "02-77300717",
    "lat": 25.02953,
    "lng": 121.506467,
    "city": "台北市",
    "area": "中正區",
    "road": "中華路二段",
    "address": "台北市中正區中華路二段 307 巷 46 號",
    "service": [
      "sweat-potato",
      "single-famiice",
      "rest-area",
      "charge-spot"
    ]
  },
  {
    "name": "全家南機場店",
    "pkey": "018955",
    "tel": "02-23039420",
    "POSTel": "02-77095865",
    "lat": 25.028401,
    "lng": 121.505774,
    "city": "台北市",
    "area": "中正區",
    "road": "中華路二段",
    "address": "台北市中正區中華路二段 311 巷 1 號 1 樓",
    "service": [
      "sweat-potato",
      "rest-area"
    ]
  },
  {
    "name": "全家高鐵一店",
    "pkey": "018519",
    "tel": "02-23619736",
    "POSTel": "02-77305337",
    "lat": 25.047203,
    "lng": 121.517044,
    "city": "台北市",
    "area": "中正區",
    "road": "北平西路",
    "address": "台北市中正區北平西路 3 號 B1 東側",
    "service": []
  },
  {
    "name": "全家高鐵二店",
    "pkey": "018520",
    "tel": "02-23148950",
    "POSTel": "02-77305663",
    "lat": 25.047203,
    "lng": 121.517044,
    "city": "台北市",
    "area": "中正區",
    "road": "北平西路",
    "address": "台北市中正區北平西路 3 號 B1 西側",
    "service": []
  },
  {
    "name": "全家台鐵西店",
    "pkey": "018558",
    "tel": "02-23141492",
    "POSTel": "02-77231903",
    "lat": 25.047203,
    "lng": 121.517044,
    "city": "台北市",
    "area": "中正區",
    "road": "北平西路",
    "address": "臺北市中正區北平西路 3 號（西南站）",
    "service": [
      "sweat-potato",
      "baked-potato",
      "charge-spot"
    ]
  },
  {
    "name": "全家台鐵北店",
    "pkey": "018559",
    "tel": "02-23142838",
    "POSTel": "02-77231907",
    "lat": 25.047203,
    "lng": 121.517044,
    "city": "台北市",
    "area": "中正區",
    "road": "北平西路",
    "address": "臺北市中正區北平西路 3 號（西北站）",
    "service": [
      "sweat-potato",
      "charge-spot"
    ]
  },
  {
    "name": "全家台鐵二店",
    "pkey": "018560",
    "tel": "02-23147112",
    "POSTel": "02-77231934",
    "lat": 25.047203,
    "lng": 121.517044,
    "city": "台北市",
    "area": "中正區",
    "road": "北平西路",
    "address": "臺北市中正區北平西路 3 號 B1",
    "service": [
      "sweat-potato",
      "baked-potato",
      "charge-spot",
      "spicy-egg"
    ]
  },
  {
    "name": "全家台鐵南店",
    "pkey": "018685",
    "tel": "02-23883209",
    "POSTel": "02-77306283",
    "lat": 25.047203,
    "lng": 121.517044,
    "city": "台北市",
    "area": "中正區",
    "road": "北平西路",
    "address": "臺北市中正區北平西路 3 號（東南站）",
    "service": [
      "sweat-potato",
      "baked-potato",
      "charge-spot",
      "steam-fresh"
    ]
  },
  {
    "name": "全家台鐵東店",
    "pkey": "018686",
    "tel": "02-23893070",
    "POSTel": "02-77306635",
    "lat": 25.047203,
    "lng": 121.517044,
    "city": "台北市",
    "area": "中正區",
    "road": "北平西路",
    "address": "臺北市中正區北平西路 3 號（東北站）",
    "service": [
      "sweat-potato",
      "baked-potato",
      "steam-fresh"
    ]
  },
  {
    "name": "全家台鐵一店",
    "pkey": "018687",
    "tel": "02-23614184",
    "POSTel": "02-77306756",
    "lat": 25.047203,
    "lng": 121.517044,
    "city": "台北市",
    "area": "中正區",
    "road": "北平西路",
    "address": "臺北市中正區北平西路 3 號 B1",
    "service": [
      "sweat-potato",
      "baked-potato",
      "charge-spot",
      "spicy-egg",
      "steam-fresh"
    ]
  },
  {
    "name": "全家新龍口店",
    "pkey": "021261",
    "tel": "02-23047184",
    "POSTel": "02-77300715",
    "lat": 25.027225,
    "lng": 121.510372,
    "city": "台北市",
    "area": "中正區",
    "road": "汀州路一段",
    "address": "台北市中正區汀州路一段 244 號",
    "service": [
      "sweat-potato",
      "rest-area",
      "charge-spot"
    ]
  },
  {
    "name": "全家新廈門店",
    "pkey": "022433",
    "tel": "02-23681443",
    "POSTel": "02-77397215",
    "lat": 25.025318,
    "lng": 121.517592,
    "city": "台北市",
    "area": "中正區",
    "road": "汀州路二段",
    "address": "台北市中正區汀州路二段 38 號 1 樓",
    "service": [
      "sweat-potato",
      "rest-area",
      "baked-potato",
      "charge-spot"
    ]
  },
  {
    "name": "全家金門店",
    "pkey": "016606",
    "tel": "02-23642756",
    "POSTel": "02-77095860",
    "lat": 25.022299,
    "lng": 121.523802,
    "city": "台北市",
    "area": "中正區",
    "road": "汀州路二段",
    "address": "台北市中正區汀州路二段 216 號 1 樓",
    "service": [
      "sweat-potato",
      "charge-spot"
    ]
  },
  {
    "name": "全家公館店",
    "pkey": "020615",
    "tel": "02-23688539",
    "POSTel": "02-77095861",
    "lat": 25.013659,
    "lng": 121.534399,
    "city": "台北市",
    "area": "中正區",
    "road": "汀州路三段",
    "address": "台北市中正區汀州路三段 251 號",
    "service": [
      "sweat-potato",
      "single-famiice",
      "rest-area",
      "baked-potato",
      "charge-spot"
    ]
  },
  {
    "name": "全家文盛店",
    "pkey": "017605",
    "tel": "02-23681345",
    "POSTel": "02-77096364",
    "lat": 25.015119,
    "lng": 121.532452,
    "city": "台北市",
    "area": "中正區",
    "road": "汀州路三段",
    "address": "台北市中正區汀州路三段 173 號",
    "service": [
      "sweat-potato",
      "single-famiice",
      "rest-area"
    ]
  },
  {
    "name": "全家水源店",
    "pkey": "014142",
    "tel": "02-23642257",
    "POSTel": "02-77095862",
    "lat": 25.012862,
    "lng": 121.535183,
    "city": "台北市",
    "area": "中正區",
    "road": "汀州路三段",
    "address": "台北市中正區汀州路三段 261 號",
    "service": [
      "sweat-potato",
      "rest-area",
      "charge-spot"
    ]
  },
  {
    "name": "全家辛館店",
    "pkey": "021877",
    "tel": "02-23688257",
    "POSTel": "02-",
    "lat": 25.019074,
    "lng": 121.527913,
    "city": "台北市",
    "area": "中正區",
    "road": "辛亥路一段",
    "address": "台北市中正區辛亥路一段 13 號",
    "service": [
      "single-famiice",
      "mont-blanc-famiice",
      "baked-potato",
      "classic-game-broadcast"
    ]
  },
  {
    "name": "全家和鄰店",
    "pkey": "017366",
    "tel": "02-23628326",
    "POSTel": "02-77095869",
    "lat": 25.026387,
    "lng": 121.518738,
    "city": "台北市",
    "area": "中正區",
    "road": "和平西路一段",
    "address": "台北市中正區和平西路一段 82 號 1 樓",
    "service": [
      "sweat-potato",
      "costco-shelf",
      "charge-spot"
    ]
  },
  {
    "name": "全家郡王店",
    "pkey": "014575",
    "tel": "02-23719902",
    "POSTel": "02-77095846",
    "lat": 25.044961,
    "lng": 121.510301,
    "city": "台北市",
    "area": "中正區",
    "road": "延平南路",
    "address": "台北市中正區延平南路 68 號",
    "service": [
      "sweat-potato",
      "rest-area",
      "baked-potato"
    ]
  },
  {
    "name": "全家寶慶店",
    "pkey": "022422",
    "tel": "02-23898700",
    "POSTel": "02-77095843",
    "lat": 25.041885,
    "lng": 121.509561,
    "city": "台北市",
    "area": "中正區",
    "road": "延平南路",
    "address": "台北市中正區延平南路 111 號",
    "service": [
      "sweat-potato",
      "single-famiice",
      "rest-area"
    ]
  },
  {
    "name": "全家和醫店",
    "pkey": "020430",
    "tel": "02-23122560",
    "POSTel": "02-77095845",
    "lat": 25.035301,
    "lng": 121.507736,
    "city": "台北市",
    "area": "中正區",
    "road": "延平南路",
    "address": "台北市中正區延平南路 159 號 1 樓",
    "service": [
      "sweat-potato",
      "rest-area",
      "baked-potato",
      "charge-spot",
      "picard",
      "classic-game-broadcast"
    ]
  },
  {
    "name": "全家亞慶店",
    "pkey": "016918",
    "tel": "02-23706675",
    "POSTel": "02-77463543",
    "lat": 25.046308,
    "lng": 121.515803,
    "city": "台北市",
    "area": "中正區",
    "road": "忠孝西路一段",
    "address": "台北市中正區忠孝西路一段 50 號 1 樓",
    "service": [
      "sweat-potato",
      "baked-potato",
      "steam-fresh"
    ]
  },
  {
    "name": "全家鴻啟店",
    "pkey": "016266",
    "tel": "02-23142878",
    "POSTel": "02-77095867",
    "lat": 25.047165,
    "lng": 121.512733,
    "city": "台北市",
    "area": "中正區",
    "road": "忠孝西路一段",
    "address": "台北市中正區忠孝西路一段 100 號",
    "service": [
      "sweat-potato",
      "rest-area",
      "charge-spot"
    ]
  },
  {
    "name": "全家崇聖店",
    "pkey": "020376",
    "tel": "02-23818610",
    "POSTel": "02-77301815",
    "lat": 25.045747,
    "lng": 121.518491,
    "city": "台北市",
    "area": "中正區",
    "road": "忠孝西路一段",
    "address": "台北市中正區忠孝西路一段 4 號",
    "service": [
      "baked-potato"
    ]
  },
  {
    "name": "全家凱撒店",
    "pkey": "018141",
    "tel": "02-23898803",
    "POSTel": "02-77286143",
    "lat": 25.046254,
    "lng": 121.516417,
    "city": "台北市",
    "area": "中正區",
    "road": "忠孝西路一段",
    "address": "台北市中正區忠孝西路一段 38 號 1 樓（部份）",
    "service": [
      "sweat-potato",
      "charge-spot",
      "picard"
    ]
  },
  {
    "name": "全家北車店",
    "pkey": "019102",
    "tel": "02-89411871",
    "POSTel": "02-77163554",
    "lat": 25.04633,
    "lng": 121.517916,
    "city": "台北市",
    "area": "中正區",
    "road": "忠孝西路一段",
    "address": "台北市中正區忠孝西路一段 45 號 1F 部分",
    "service": [
      "baked-potato",
      "charge-spot",
      "classic-game-broadcast"
    ]
  },
  {
    "name": "全家善導寺店",
    "pkey": "020189",
    "tel": "02-23964652",
    "POSTel": "02-77301216",
    "lat": 25.044951,
    "lng": 121.523659,
    "city": "台北市",
    "area": "中正區",
    "road": "忠孝東路一段",
    "address": "台北市中正區忠孝東路一段 9 號 1 樓",
    "service": [
      "baked-potato",
      "charge-spot",
      "spicy-egg",
      "classic-game-broadcast"
    ]
  },
  {
    "name": "全家兆豐店",
    "pkey": "018710",
    "tel": "02-23418109",
    "POSTel": "02-77303715",
    "lat": 25.04314,
    "lng": 121.530909,
    "city": "台北市",
    "area": "中正區",
    "road": "忠孝東路二段",
    "address": "台北市中正區忠孝東路二段 93 號 1 樓",
    "service": [
      "two-famiice",
      "charge-spot",
      "spicy-egg",
      "classic-game-broadcast"
    ]
  },
  {
    "name": "全家富邦店",
    "pkey": "020254",
    "tel": "02-23513120",
    "POSTel": "02-77300571",
    "lat": 25.042543,
    "lng": 121.526566,
    "city": "台北市",
    "area": "中正區",
    "road": "杭州南路一段",
    "address": "台北市中正區杭州南路一段 19 號 1F",
    "service": [
      "two-famiice",
      "baked-potato",
      "charge-spot",
      "picard",
      "recyclable-cup",
      "classic-game-broadcast"
    ]
  },
  {
    "name": "全家文祥店",
    "pkey": "018150",
    "tel": "02-23914884",
    "POSTel": "02-77095850",
    "lat": 25.035943,
    "lng": 121.524657,
    "city": "台北市",
    "area": "中正區",
    "road": "杭州南路一段",
    "address": "台北市中正區杭州南路一段 147 號",
    "service": [
      "sweat-potato",
      "single-famiice",
      "rest-area",
      "charge-spot",
      "picard",
      "steam-fresh",
      "classic-game-broadcast"
    ]
  },
  {
    "name": "全家林森南路店",
    "pkey": "022269",
    "tel": "02-23519110",
    "POSTel": "02-77095855",
    "lat": 25.039944,
    "lng": 121.522046,
    "city": "台北市",
    "area": "中正區",
    "road": "林森南路",
    "address": "台北市中正區林森南路 57、59 號",
    "service": [
      "sweat-potato",
      "single-famiice",
      "rest-area",
      "baked-potato"
    ]
  },
  {
    "name": "全家北盛店",
    "pkey": "022091",
    "tel": "02-23612673",
    "POSTel": "02-",
    "lat": 25.04503,
    "lng": 121.517587,
    "city": "台北市",
    "area": "中正區",
    "road": "青島西路",
    "address": "台北市中正區青島西路 13 號",
    "service": [
      "baked-potato",
      "classic-game-broadcast"
    ]
  },
  {
    "name": "全家南陽店",
    "pkey": "020383",
    "tel": "02-23881469",
    "POSTel": "02-77095868",
    "lat": 25.044774,
    "lng": 121.516203,
    "city": "台北市",
    "area": "中正區",
    "road": "信陽街",
    "address": "台北市中正區信陽街 15 號",
    "service": [
      "sweat-potato",
      "single-famiice",
      "baked-potato",
      "charge-spot"
    ]
  },
  {
    "name": "全家新東門店",
    "pkey": "019218",
    "tel": "02-23564259",
    "POSTel": "02-77292130",
    "lat": 25.038155,
    "lng": 121.519481,
    "city": "台北市",
    "area": "中正區",
    "road": "信義路一段",
    "address": "台北市中正區信義路一段 1 號",
    "service": [
      "sweat-potato",
      "rest-area",
      "charge-spot"
    ]
  },
  {
    "name": "全家南海店",
    "pkey": "020778",
    "tel": "02-23564283",
    "POSTel": "02-77095849",
    "lat": 25.032433,
    "lng": 121.517011,
    "city": "台北市",
    "area": "中正區",
    "road": "南海路",
    "address": "臺北市中正區南海路 20 號",
    "service": [
      "sweat-potato",
      "rest-area",
      "fresh-vegetables",
      "two-famiice",
      "chubby-famiice",
      "tianhe-fresh",
      "baked-potato",
      "charge-spot",
      "smart-coffee",
      "fresh-brew-tea",
      "picard",
      "steam-fresh",
      "recyclable-cup",
      "sohot-fresh-snacks"
    ]
  },
  {
    "name": "全家正陽店",
    "pkey": "020487",
    "tel": "02-23613524",
    "POSTel": "02-77285863",
    "lat": 25.045711,
    "lng": 121.516304,
    "city": "台北市",
    "area": "中正區",
    "road": "南陽街",
    "address": "台北市中正區南陽街 1 號",
    "service": [
      "two-famiice",
      "picard",
      "classic-game-broadcast"
    ]
  },
  {
    "name": "全家重慶店",
    "pkey": "017294",
    "tel": "02-23122797",
    "POSTel": "02-77095851",
    "lat": 25.043947,
    "lng": 121.51306,
    "city": "台北市",
    "area": "中正區",
    "road": "重慶南路一段",
    "address": "台北市中正區重慶南路一段 58 號",
    "service": [
      "sweat-potato",
      "rest-area",
      "two-famiice",
      "chubby-famiice",
      "baked-potato",
      "charge-spot",
      "smart-coffee",
      "spicy-egg",
      "steam-fresh",
      "recyclable-cup",
      "classic-game-broadcast"
    ]
  },
  {
    "name": "全家台六宿舍店",
    "pkey": "020054",
    "tel": "02-33226216",
    "POSTel": "02-",
    "lat": 25.041041,
    "lng": 121.521497,
    "city": "台北市",
    "area": "中正區",
    "road": "徐州路",
    "address": "台北市中正區徐州路 2 之 2 號 1F",
    "service": [
      "single-famiice",
      "baked-potato",
      "charge-spot"
    ]
  },
  {
    "name": "全家昌盛店",
    "pkey": "021213",
    "tel": "02-23123067",
    "POSTel": "02-77523426",
    "lat": 25.045438,
    "lng": 121.516757,
    "city": "台北市",
    "area": "中正區",
    "road": "許昌街",
    "address": "台北市中正區許昌街 14 號 1F",
    "service": [
      "two-famiice",
      "baked-potato",
      "classic-game-broadcast"
    ]
  },
  {
    "name": "全家博愛店",
    "pkey": "021998",
    "tel": "02-23432173",
    "POSTel": "02-77286631",
    "lat": 25.044256,
    "lng": 121.511551,
    "city": "台北市",
    "area": "中正區",
    "road": "博愛路",
    "address": "台北市中正區博愛路 63 號 1F＋B1F",
    "service": [
      "sweat-potato",
      "charge-spot",
      "spicy-egg",
      "recyclable-cup"
    ]
  },
  {
    "name": "全家開封店",
    "pkey": "022501",
    "tel": "02-23709020",
    "POSTel": "02-77095852",
    "lat": 25.046144,
    "lng": 121.512513,
    "city": "台北市",
    "area": "中正區",
    "road": "開封街一段",
    "address": "台北市中正區開封街一段 41 號 1 樓",
    "service": [
      "sweat-potato",
      "rest-area",
      "baked-potato",
      "charge-spot",
      "smart-coffee",
      "spicy-egg"
    ]
  },
  {
    "name": "全家嶺先店",
    "pkey": "020549",
    "tel": "02-23672038",
    "POSTel": "02-77137526",
    "lat": 25.023508,
    "lng": 121.5191,
    "city": "台北市",
    "area": "中正區",
    "road": "廈門街",
    "address": "台北市中正區廈門街 113 巷 17 號 1 樓及地下室部分",
    "service": [
      "charge-spot",
      "picard"
    ]
  },
  {
    "name": "全家教育大學店",
    "pkey": "019181",
    "tel": "02-23888317",
    "POSTel": "02-77462653",
    "lat": 25.035578,
    "lng": 121.513569,
    "city": "台北市",
    "area": "中正區",
    "road": "愛國西路",
    "address": "台北市中正區愛國西路 1 號",
    "service": [
      "sweat-potato",
      "two-famiice",
      "baked-potato",
      "spicy-egg",
      "steam-fresh",
      "sohot-fresh-snacks"
    ]
  },
  {
    "name": "全家漢盛店",
    "pkey": "015850",
    "tel": "02-23117024",
    "POSTel": "02-77093390",
    "lat": 25.045099,
    "lng": 121.514384,
    "city": "台北市",
    "area": "中正區",
    "road": "漢口街一段",
    "address": "台北市中正區漢口街一段 18 號",
    "service": [
      "sweat-potato",
      "charge-spot"
    ]
  },
  {
    "name": "全家福昌店",
    "pkey": "017358",
    "tel": "02-23913137",
    "POSTel": "02-77303690",
    "lat": 25.029407,
    "lng": 121.519789,
    "city": "台北市",
    "area": "中正區",
    "road": "福州街",
    "address": "台北市中正區福州街 10 號 1 樓（部份）",
    "service": [
      "sweat-potato",
      "single-famiice",
      "rest-area",
      "smart-coffee"
    ]
  },
  {
    "name": "全家機場捷運店",
    "pkey": "021597",
    "tel": "02-23311029",
    "POSTel": "02-",
    "lat": 25.049401,
    "lng": 121.512762,
    "city": "台北市",
    "area": "中正區",
    "road": "鄭州路",
    "address": "台北市中正區鄭州路 8 號 B1 樓",
    "service": [
      "charge-spot",
      "classic-game-broadcast"
    ]
  },
  {
    "name": "全家衡慶店",
    "pkey": "017203",
    "tel": "02-23820271",
    "POSTel": "02-77294765",
    "lat": 25.042415,
    "lng": 121.513718,
    "city": "台北市",
    "area": "中正區",
    "road": "衡陽路",
    "address": "台北市中正區衡陽路 7 號 1 樓部分（如附圖）",
    "service": [
      "sweat-potato",
      "rest-area",
      "two-famiice",
      "charge-spot"
    ]
  },
  {
    "name": "全家新衡陽店",
    "pkey": "017503",
    "tel": "02-23711130",
    "POSTel": "02-77397262",
    "lat": 25.042355,
    "lng": 121.511054,
    "city": "台北市",
    "area": "中正區",
    "road": "衡陽路",
    "address": "台北市中正區衡陽路 77 號一樓",
    "service": [
      "sweat-potato",
      "single-famiice",
      "rest-area",
      "charge-spot"
    ]
  },
  {
    "name": "全家新仟囍店",
    "pkey": "021189",
    "tel": "02-23822831",
    "POSTel": "02-77463019",
    "lat": 25.044561,
    "lng": 121.514898,
    "city": "台北市",
    "area": "中正區",
    "road": "館前路",
    "address": "台北市中正區館前路 36 號 1 樓",
    "service": [
      "sweat-potato",
      "polaroid",
      "rest-area",
      "two-famiice",
      "charge-spot",
      "smart-coffee",
      "spicy-egg"
    ]
  },
  {
    "name": "全家齊東店",
    "pkey": "020431",
    "tel": "02-23942076",
    "POSTel": "02-77095857",
    "lat": 25.041596,
    "lng": 121.526814,
    "city": "台北市",
    "area": "中正區",
    "road": "濟南路二段",
    "address": "台北市中正區濟南路二段 3-7 號 1 樓",
    "service": [
      "sweat-potato",
      "polaroid",
      "single-famiice",
      "rest-area",
      "picard",
      "classic-game-broadcast"
    ]
  },
  {
    "name": "全家富陽店",
    "pkey": "022538",
    "tel": "02-23754181",
    "POSTel": "02-77136528",
    "lat": 25.043519,
    "lng": 121.515838,
    "city": "台北市",
    "area": "中正區",
    "road": "襄陽路",
    "address": "台北市中正區襄陽路 7 號 1 樓",
    "service": [
      "sweat-potato",
      "rest-area",
      "baked-potato",
      "spicy-egg",
      "recyclable-cup"
    ]
  },
  {
    "name": "全家西站店",
    "pkey": "022172",
    "tel": "02-23120577",
    "POSTel": "02-77136529",
    "lat": 25.046208,
    "lng": 121.514268,
    "city": "台北市",
    "area": "中正區",
    "road": "懷寧街",
    "address": "台北市中正區懷寧街 7 之 1 號",
    "service": [
      "sweat-potato",
      "rest-area",
      "charge-spot",
      "smart-coffee",
      "spicy-egg"
    ]
  },
  {
    "name": "全家羅斯店",
    "pkey": "018140",
    "tel": "02-23962007",
    "POSTel": "02-77286041",
    "lat": 25.02764,
    "lng": 121.521717,
    "city": "台北市",
    "area": "中正區",
    "road": "羅斯福路二段",
    "address": "台北市中正區羅斯福路 2 段 62 號 1 樓",
    "service": [
      "sweat-potato",
      "costco-shelf"
    ]
  },
  {
    "name": "全家羅安店",
    "pkey": "018528",
    "tel": "02-23654518",
    "POSTel": "02-77231897",
    "lat": 25.025919,
    "lng": 121.52301,
    "city": "台北市",
    "area": "中正區",
    "road": "羅斯福路二段",
    "address": "台北市中正區羅斯福路二段 140 號 1 樓",
    "service": [
      "sweat-potato",
      "single-famiice",
      "costco-shelf",
      "smart-coffee",
      "picard",
      "sohot-fresh-snacks"
    ]
  },
  {
    "name": "全家金安店",
    "pkey": "020800",
    "tel": "02-23654620",
    "POSTel": "02-77285604",
    "lat": 25.023396,
    "lng": 121.524883,
    "city": "台北市",
    "area": "中正區",
    "road": "羅斯福路三段",
    "address": "台北市中正區羅斯福路三段 8 號 1＋2 樓",
    "service": []
  },
  {
    "name": "全家羅館店",
    "pkey": "021353",
    "tel": "02-23675612",
    "POSTel": "02-77566381",
    "lat": 25.016935,
    "lng": 121.530802,
    "city": "台北市",
    "area": "中正區",
    "road": "羅斯福路三段",
    "address": "台北市中正區羅斯福路三段 244 巷 7 號 1 樓",
    "service": [
      "single-famiice",
      "baked-potato",
      "classic-game-broadcast"
    ]
  },
  {
    "name": "全家館中店",
    "pkey": "020447",
    "tel": "02-23672204",
    "POSTel": "02-77095872",
    "lat": 25.015748,
    "lng": 121.5326,
    "city": "台北市",
    "area": "中正區",
    "road": "羅斯福路三段",
    "address": "台北市中正區羅斯福路三段 316 巷 8 弄 1 號 1 樓",
    "service": [
      "sweat-potato",
      "single-famiice",
      "baked-potato",
      "classic-game-broadcast"
    ]
  },
  {
    "name": "全家大龍店",
    "pkey": "019761",
    "tel": "02-25980054",
    "POSTel": "02-77095825",
    "lat": 25.067372,
    "lng": 121.516045,
    "city": "台北市",
    "area": "大同區",
    "road": "大龍街",
    "address": "台北市大同區大龍街 133 號 1 樓",
    "service": []
  },
  {
    "name": "全家蘭州店",
    "pkey": "015569",
    "tel": "02-25995380",
    "POSTel": "02-77095826",
    "lat": 25.070586,
    "lng": 121.515924,
    "city": "台北市",
    "area": "大同區",
    "road": "大龍街",
    "address": "台北市大同區大龍街 217 號 1 樓",
    "service": [
      "sweat-potato",
      "rest-area"
    ]
  },
  {
    "name": "全家泰元店",
    "pkey": "017339",
    "tel": "02-25592980",
    "POSTel": "02-77397543",
    "lat": 25.051883,
    "lng": 121.51569,
    "city": "台北市",
    "area": "大同區",
    "road": "太原路",
    "address": "台北市大同區太原路 81 號",
    "service": [
      "sweat-potato",
      "charge-spot"
    ]
  },
  {
    "name": "全家太陽店",
    "pkey": "019755",
    "tel": "02-25507907",
    "POSTel": "02-77301652",
    "lat": 25.055294,
    "lng": 121.516696,
    "city": "台北市",
    "area": "大同區",
    "road": "太原路",
    "address": "台北市大同區太原路 153 號 1 樓",
    "service": [
      "classic-game-broadcast"
    ]
  },
  {
    "name": "全家萬全店",
    "pkey": "021129",
    "tel": "02-25576965",
    "POSTel": "02-77095827",
    "lat": 25.057725,
    "lng": 121.520117,
    "city": "台北市",
    "area": "大同區",
    "road": "民生西路",
    "address": "台北市大同區民生西路 63 號",
    "service": [
      "sweat-potato",
      "rest-area",
      "two-famiice",
      "chubby-famiice"
    ]
  },
  {
    "name": "全家福澤店",
    "pkey": "020429",
    "tel": "02-25572577",
    "POSTel": "02-77294790",
    "lat": 25.062778,
    "lng": 121.515817,
    "city": "台北市",
    "area": "大同區",
    "road": "民權西路",
    "address": "台北市大同區民權西路 146 號",
    "service": [
      "sweat-potato",
      "single-famiice",
      "charge-spot",
      "spicy-egg"
    ]
  },
  {
    "name": "全家權澤店",
    "pkey": "019306",
    "tel": "02-25506916",
    "POSTel": "02-77096394",
    "lat": 25.062732,
    "lng": 121.517087,
    "city": "台北市",
    "area": "大同區",
    "road": "民權西路",
    "address": "台北市大同區民權西路 110 號 1 樓及夾層",
    "service": [
      "baked-potato",
      "charge-spot",
      "recyclable-cup"
    ]
  },
  {
    "name": "全家永樂店",
    "pkey": "018592",
    "tel": "02-25529571",
    "POSTel": "02-77095832",
    "lat": 25.060382,
    "lng": 121.511226,
    "city": "台北市",
    "area": "大同區",
    "road": "延平北路二段",
    "address": "台北市大同區延平北路二段 260 號之 1",
    "service": [
      "sweat-potato",
      "rest-area",
      "fresh-vegetables",
      "charge-spot",
      "picard",
      "spicy-egg"
    ]
  },
  {
    "name": "全家新橋店",
    "pkey": "020876",
    "tel": "02-25996171",
    "POSTel": "02-77230801",
    "lat": 25.064474,
    "lng": 121.511223,
    "city": "台北市",
    "area": "大同區",
    "road": "延平北路三段",
    "address": "臺北市大同區延平北路三段 25 之 3 號",
    "service": [
      "sweat-potato",
      "rest-area"
    ]
  },
  {
    "name": "全家國順店",
    "pkey": "018861",
    "tel": "02-25919787",
    "POSTel": "02-77095833",
    "lat": 25.067306,
    "lng": 121.510818,
    "city": "台北市",
    "area": "大同區",
    "road": "延平北路三段",
    "address": "台北市大同區延平北路三段 118 號 1 樓",
    "service": [
      "sweat-potato",
      "toilet",
      "rest-area"
    ]
  },
  {
    "name": "全家龍泉店",
    "pkey": "020985",
    "tel": "02-85961664",
    "POSTel": "02-77557096",
    "lat": 25.070552,
    "lng": 121.510708,
    "city": "台北市",
    "area": "大同區",
    "road": "延平北路四段",
    "address": "台北市大同區延平北路四段 62 號 1 樓",
    "service": [
      "picard",
      "classic-game-broadcast"
    ]
  },
  {
    "name": "全家京承店",
    "pkey": "021900",
    "tel": "02-25508721",
    "POSTel": "02-77091287",
    "lat": 25.050731,
    "lng": 121.517227,
    "city": "台北市",
    "area": "大同區",
    "road": "承德路一段",
    "address": "台北市大同區承德路一段 29 號 1 樓",
    "service": [
      "single-famiice",
      "mont-blanc-famiice",
      "baked-potato",
      "charge-spot",
      "spicy-egg",
      "classic-game-broadcast"
    ]
  },
  {
    "name": "全家日新店",
    "pkey": "021929",
    "tel": "02-25505051",
    "POSTel": "02-77095837",
    "lat": 25.0550369830347,
    "lng": 121.518404188858,
    "city": "台北市",
    "area": "大同區",
    "road": "承德路二段",
    "address": "台北市大同區承德路二段 39、41 號 1 樓",
    "service": [
      "single-famiice",
      "rest-area",
      "baked-potato",
      "charge-spot",
      "classic-game-broadcast"
    ]
  },
  {
    "name": "全家福安店",
    "pkey": "022280",
    "tel": "02-25509755",
    "POSTel": "02-77095838",
    "lat": 25.050123,
    "lng": 121.519855,
    "city": "台北市",
    "area": "大同區",
    "road": "長安西路",
    "address": "台北市大同區長安西路 54 號 1 樓",
    "service": [
      "sweat-potato",
      "toilet",
      "rest-area",
      "two-famiice",
      "chubby-famiice",
      "charge-spot",
      "smart-coffee",
      "spicy-egg"
    ]
  },
  {
    "name": "全家玉泉店",
    "pkey": "017525",
    "tel": "02-25522657",
    "POSTel": "02-77304882",
    "lat": 25.051929,
    "lng": 121.510229,
    "city": "台北市",
    "area": "大同區",
    "road": "長安西路",
    "address": "台北市大同區長安西路 342 號 1 樓",
    "service": [
      "sweat-potato",
      "rest-area",
      "classic-game-broadcast"
    ]
  },
  {
    "name": "全家長慶店",
    "pkey": "017719",
    "tel": "02-25507756",
    "POSTel": "02-77300601",
    "lat": 25.051645,
    "lng": 121.513331,
    "city": "台北市",
    "area": "大同區",
    "road": "長安西路",
    "address": "台北市大同區長安西路 258 號 1 樓",
    "service": [
      "sweat-potato",
      "charge-spot",
      "classic-game-broadcast"
    ]
  },
  {
    "name": "全家福山店",
    "pkey": "020511",
    "tel": "02-25526380",
    "POSTel": "02-77287051",
    "lat": 25.050434,
    "lng": 121.519947,
    "city": "台北市",
    "area": "大同區",
    "road": "長安西路",
    "address": "台北市大同區長安西路 25 號 1 樓全部",
    "service": [
      "baked-potato",
      "charge-spot",
      "picard",
      "sohot-fresh-snacks",
      "classic-game-broadcast"
    ]
  },
  {
    "name": "全家金慶店",
    "pkey": "021437",
    "tel": "02-25564600",
    "POSTel": "02-77463101",
    "lat": 25.053915,
    "lng": 121.513337,
    "city": "台北市",
    "area": "大同區",
    "road": "南京西路",
    "address": "台北市大同區南京西路 308 號 1 樓",
    "service": [
      "sweat-potato",
      "single-famiice",
      "toilet",
      "rest-area",
      "charge-spot"
    ]
  },
  {
    "name": "全家京鋒店",
    "pkey": "019353",
    "tel": "02-25587692",
    "POSTel": "02-77300702",
    "lat": 25.053089,
    "lng": 121.519086,
    "city": "台北市",
    "area": "大同區",
    "road": "南京西路",
    "address": "台北市大同區南京西路 61 號 1 樓",
    "service": [
      "sweat-potato",
      "single-famiice",
      "baked-potato",
      "classic-game-broadcast"
    ]
  },
  {
    "name": "全家迪化街店",
    "pkey": "022002",
    "tel": "02-85902267",
    "POSTel": "02-77092178",
    "lat": 25.054903,
    "lng": 121.50998,
    "city": "台北市",
    "area": "大同區",
    "road": "迪化街一段",
    "address": "台北市大同區迪化街一段 42 號 1、2 樓",
    "service": [
      "single-famiice",
      "mont-blanc-famiice",
      "charge-spot",
      "classic-game-broadcast"
    ]
  },
  {
    "name": "全家慶權店",
    "pkey": "018273",
    "tel": "02-25578978",
    "POSTel": "02-77095839",
    "lat": 25.062749,
    "lng": 121.513745,
    "city": "台北市",
    "area": "大同區",
    "road": "重慶北路二段",
    "address": "台北市大同區重慶北路二段 263 號 1 樓",
    "service": [
      "sweat-potato"
    ]
  },
  {
    "name": "全家龍昌店",
    "pkey": "019247",
    "tel": "02-25919144",
    "POSTel": "02-77099746",
    "lat": 25.074338,
    "lng": 121.514062,
    "city": "台北市",
    "area": "大同區",
    "road": "重慶北路三段",
    "address": "台北市大同區重慶北路三段 327 號 1 樓（如附圖）",
    "service": []
  },
  {
    "name": "全家慶國店",
    "pkey": "021468",
    "tel": "02-25950170",
    "POSTel": "02-",
    "lat": 25.072793,
    "lng": 121.513584,
    "city": "台北市",
    "area": "大同區",
    "road": "重慶北路三段",
    "address": "台北市大同區重慶北路三段 278 之 2 號 1 樓",
    "service": [
      "single-famiice",
      "charge-spot",
      "classic-game-broadcast"
    ]
  },
  {
    "name": "全家酒泉店",
    "pkey": "022642",
    "tel": "02-25929575",
    "POSTel": "02-77095841",
    "lat": 25.071835,
    "lng": 121.518297,
    "city": "台北市",
    "area": "大同區",
    "road": "庫倫街",
    "address": "臺北市大同區庫倫街 48 之 4 號",
    "service": [
      "sweat-potato",
      "rest-area",
      "charge-spot",
      "spicy-egg"
    ]
  },
  {
    "name": "全家鑫泉店",
    "pkey": "019021",
    "tel": "02-25986829",
    "POSTel": "02-77287625",
    "lat": 25.072254,
    "lng": 121.511208,
    "city": "台北市",
    "area": "大同區",
    "road": "酒泉街",
    "address": "台北市大同區酒泉街 227 號 1 樓",
    "service": [
      "charge-spot"
    ]
  },
  {
    "name": "全家寧夏店",
    "pkey": "022411",
    "tel": "02-25500930",
    "POSTel": "02-77136520",
    "lat": 25.055823,
    "lng": 121.515108,
    "city": "台北市",
    "area": "大同區",
    "road": "寧夏路",
    "address": "台北市大同區寧夏路 28、30、28—1、28—2 號",
    "service": [
      "toilet",
      "charge-spot"
    ]
  },
  {
    "name": "全家甘州店",
    "pkey": "018266",
    "tel": "02-25505587",
    "POSTel": "02-77095842",
    "lat": 25.058305,
    "lng": 121.513038,
    "city": "台北市",
    "area": "大同區",
    "road": "歸綏街",
    "address": "台北市大同區歸綏街 181 之 2 號",
    "service": [
      "sweat-potato",
      "toilet",
      "rest-area",
      "charge-spot",
      "picard",
      "classic-game-broadcast"
    ]
  },
  {
    "name": "全家京江店",
    "pkey": "019403",
    "tel": "02-25678224",
    "POSTel": "02-77095806",
    "lat": 25.052696,
    "lng": 121.531373,
    "city": "台北市",
    "area": "中山區",
    "road": "一江街",
    "address": "台北市中山區一江街 22 號 1 樓",
    "service": [
      "sweat-potato",
      "toilet",
      "rest-area",
      "two-famiice",
      "charge-spot"
    ]
  },
  {
    "name": "全家直學店",
    "pkey": "017275",
    "tel": "02-25328364",
    "POSTel": "02-77230350",
    "lat": 25.080829,
    "lng": 121.546531,
    "city": "台北市",
    "area": "中山區",
    "road": "大直街",
    "address": "台北市中山區大直街 11 號",
    "service": [
      "sweat-potato",
      "single-famiice",
      "charge-spot"
    ]
  },
  {
    "name": "全家大直店",
    "pkey": "018505",
    "tel": "02-25328875",
    "POSTel": "02-77095783",
    "lat": 25.082196,
    "lng": 121.546504,
    "city": "台北市",
    "area": "中山區",
    "road": "大直街",
    "address": "台北市中山區大直街 33 巷 1 號",
    "service": [
      "sweat-potato",
      "rest-area",
      "charge-spot",
      "spicy-egg"
    ]
  },
  {
    "name": "全家市民店",
    "pkey": "019476",
    "tel": "02-25638109",
    "POSTel": "02-77294950",
    "lat": 25.04851,
    "lng": 121.520695,
    "city": "台北市",
    "area": "中山區",
    "road": "中山北路一段",
    "address": "台北市中山區中山北路一段 58 號",
    "service": [
      "sweat-potato",
      "charge-spot"
    ]
  },
  {
    "name": "全家新國賓店",
    "pkey": "021805",
    "tel": "02-25818863",
    "POSTel": "02-77463013",
    "lat": 25.057487,
    "lng": 121.523072,
    "city": "台北市",
    "area": "中山區",
    "road": "中山北路二段",
    "address": "台北市中山區中山北路二段 75-1 號 1 樓",
    "service": [
      "sweat-potato",
      "baked-potato",
      "charge-spot"
    ]
  },
  {
    "name": "全家中賓店",
    "pkey": "005989",
    "tel": "02-25230023",
    "POSTel": "02-77096471",
    "lat": 25.056037,
    "lng": 121.522976,
    "city": "台北市",
    "area": "中山區",
    "road": "中山北路二段",
    "address": "台北市中山區中山里中山北路二段 59 之 3 號 1 樓",
    "service": [
      "sweat-potato",
      "fresh-vegetables",
      "two-famiice",
      "chubby-famiice",
      "baked-potato",
      "smart-coffee",
      "fresh-brew-tea",
      "spicy-egg",
      "steam-fresh",
      "recyclable-cup",
      "classic-game-broadcast"
    ]
  },
  {
    "name": "全家聚葉店",
    "pkey": "014903",
    "tel": "02-25716328",
    "POSTel": "02-77294960",
    "lat": 25.061609,
    "lng": 121.525065,
    "city": "台北市",
    "area": "中山區",
    "road": "中山北路二段",
    "address": "台北市中山區中山北路二段 137 巷 34 號 1 樓",
    "service": [
      "sweat-potato",
      "rest-area",
      "charge-spot"
    ]
  },
  {
    "name": "全家台鑫店",
    "pkey": "017449",
    "tel": "02-25118851",
    "POSTel": "02-77303835",
    "lat": 25.055228,
    "lng": 121.522496,
    "city": "台北市",
    "area": "中山區",
    "road": "中山北路二段",
    "address": "台北市中山區中山北路二段 44 號 1 樓部份",
    "service": [
      "sweat-potato",
      "baked-potato",
      "charge-spot",
      "recyclable-cup",
      "classic-game-broadcast"
    ]
  },
  {
    "name": "全家東南店",
    "pkey": "020550",
    "tel": "02-25317972",
    "POSTel": "02-77137702",
    "lat": 25.056609,
    "lng": 121.522565,
    "city": "台北市",
    "area": "中山區",
    "road": "中山北路二段",
    "address": "台北市中山區中山北路二段 60 號",
    "service": [
      "single-famiice",
      "baked-potato",
      "charge-spot",
      "fresh-brew-tea",
      "spicy-egg",
      "steam-fresh",
      "recyclable-cup",
      "sohot-fresh-snacks",
      "classic-game-broadcast"
    ]
  },
  {
    "name": "全家柯達飯店",
    "pkey": "021939",
    "tel": "02-25417813",
    "POSTel": "02-77092182",
    "lat": 25.052871,
    "lng": 121.523174,
    "city": "台北市",
    "area": "中山區",
    "road": "中山北路二段",
    "address": "台北市中山區中山北路二段 11 巷 1 號、 3 號",
    "service": [
      "single-famiice",
      "baked-potato",
      "recyclable-cup",
      "classic-game-broadcast"
    ]
  },
  {
    "name": "全家圓山飯店",
    "pkey": "017899",
    "tel": "02-28850843",
    "POSTel": "02-77463590",
    "lat": 25.081177,
    "lng": 121.528828,
    "city": "台北市",
    "area": "中山區",
    "road": "中山北路四段",
    "address": "台北市中山區中山北路四段 1 巷 1 號 1 樓（麒麟廳））",
    "service": [
      "sweat-potato"
    ]
  },
  {
    "name": "全家錦原店",
    "pkey": "018112",
    "tel": "02-25412311",
    "POSTel": "02-77095828",
    "lat": 25.060968,
    "lng": 121.529006,
    "city": "台北市",
    "area": "中山區",
    "road": "中原街",
    "address": "台北市中山區中原街 101 號 1 樓",
    "service": [
      "sweat-potato"
    ]
  },
  {
    "name": "全家新吉原店",
    "pkey": "017553",
    "tel": "02-25113653",
    "POSTel": "02-77397223",
    "lat": 25.05651,
    "lng": 121.528746,
    "city": "台北市",
    "area": "中山區",
    "road": "中原街",
    "address": "台北市中山區中原街 16 號 1 樓",
    "service": [
      "sweat-potato",
      "rest-area",
      "fresh-vegetables",
      "costco-shelf",
      "charge-spot"
    ]
  },
  {
    "name": "全家五常店",
    "pkey": "018188",
    "tel": "02-25067078",
    "POSTel": "02-77136521",
    "lat": 25.06551,
    "lng": 121.539687,
    "city": "台北市",
    "area": "中山區",
    "road": "五常街",
    "address": "台北市中山區五常街 53 巷 23 號 1 號",
    "service": [
      "sweat-potato",
      "rest-area",
      "charge-spot"
    ]
  },
  {
    "name": "全家日津店",
    "pkey": "017933",
    "tel": "02-25635367",
    "POSTel": "02-77136522",
    "lat": 25.050165,
    "lng": 121.523071,
    "city": "台北市",
    "area": "中山區",
    "road": "天津街",
    "address": "台北市中山區正義里天津街 47 號 1 樓及地下室",
    "service": [
      "sweat-potato",
      "rest-area"
    ]
  },
  {
    "name": "全家永安店",
    "pkey": "022171",
    "tel": "02-25322254",
    "POSTel": "02-77095795",
    "lat": 25.082873,
    "lng": 121.549469,
    "city": "台北市",
    "area": "中山區",
    "road": "北安路",
    "address": "台北市中山區北安路 630 巷 7 號 1 樓",
    "service": [
      "sweat-potato",
      "single-famiice",
      "rest-area",
      "baked-potato",
      "charge-spot"
    ]
  },
  {
    "name": "全家美華店",
    "pkey": "015759",
    "tel": "02-85095070",
    "POSTel": "02-77095796",
    "lat": 25.084952,
    "lng": 121.556154,
    "city": "台北市",
    "area": "中山區",
    "road": "北安路",
    "address": "台北市中山區北安路 819 之 1 號",
    "service": [
      "sweat-potato",
      "toilet",
      "gogoro-battery-exchange"
    ]
  },
  {
    "name": "全家新北鄰店",
    "pkey": "022361",
    "tel": "02-25325010",
    "POSTel": "02-77093290",
    "lat": 25.078927,
    "lng": 121.546273,
    "city": "台北市",
    "area": "中山區",
    "road": "北安路",
    "address": "台北市中山區北安路 458 巷 41 弄 48 號 1 樓",
    "service": [
      "sweat-potato",
      "rest-area",
      "costco-shelf"
    ]
  },
  {
    "name": "全家松平店",
    "pkey": "020662",
    "tel": "02-25318666",
    "POSTel": "02-77095807",
    "lat": 25.053789,
    "lng": 121.532316,
    "city": "台北市",
    "area": "中山區",
    "road": "四平街",
    "address": "台北市中山區四平街 47 號",
    "service": [
      "sweat-potato",
      "rest-area",
      "charge-spot",
      "spicy-egg"
    ]
  },
  {
    "name": "全家雙全店",
    "pkey": "020299",
    "tel": "02-25217082",
    "POSTel": "02-77230508",
    "lat": 25.057589,
    "lng": 121.52089,
    "city": "台北市",
    "area": "中山區",
    "road": "民生西路",
    "address": "台北市中山區民生西路 62 號 1 樓全部",
    "service": [
      "single-famiice",
      "baked-potato",
      "charge-spot",
      "classic-game-broadcast"
    ]
  },
  {
    "name": "全家新馬偕店",
    "pkey": "021421",
    "tel": "02-25117837",
    "POSTel": "02-77566382",
    "lat": 25.057875,
    "lng": 121.521051,
    "city": "台北市",
    "area": "中山區",
    "road": "民生西路",
    "address": "台北市中山區民生西路 33 號 1-4 樓",
    "service": [
      "baked-potato",
      "classic-game-broadcast"
    ]
  },
  {
    "name": "全家福泰店",
    "pkey": "014538",
    "tel": "02-25413026",
    "POSTel": "02-77095398",
    "lat": 25.057944,
    "lng": 121.524275,
    "city": "台北市",
    "area": "中山區",
    "road": "民生東路一段",
    "address": "台北市中山區民生東路一段 36 號 1 樓",
    "service": [
      "sweat-potato",
      "rest-area",
      "two-famiice",
      "costco-shelf",
      "charge-spot",
      "picard",
      "recyclable-cup"
    ]
  },
  {
    "name": "全家玉林店",
    "pkey": "019112",
    "tel": "02-25222731",
    "POSTel": "02-77095830",
    "lat": 25.058711,
    "lng": 121.525095,
    "city": "台北市",
    "area": "中山區",
    "road": "民生東路一段",
    "address": "台北市中山區民生東路一段 27 巷 15 號",
    "service": [
      "sweat-potato"
    ]
  },
  {
    "name": "全家民佳店",
    "pkey": "018404",
    "tel": "02-25038763",
    "POSTel": "02-77294646",
    "lat": 25.058134,
    "lng": 121.535821,
    "city": "台北市",
    "area": "中山區",
    "road": "民生東路二段",
    "address": "台北市中山區民生東路二段 155 號 1 樓",
    "service": [
      "sweat-potato",
      "toilet",
      "rest-area",
      "two-famiice",
      "chubby-famiice",
      "charge-spot",
      "spicy-egg",
      "recyclable-cup",
      "sohot-fresh-snacks"
    ]
  },
  {
    "name": "全家民族店",
    "pkey": "021201",
    "tel": "02-25185693",
    "POSTel": "02-77095813",
    "lat": 25.066772,
    "lng": 121.539542,
    "city": "台北市",
    "area": "中山區",
    "road": "民族東路",
    "address": "台北市中山區民族東路 410 巷 23 弄 24 號",
    "service": [
      "sweat-potato",
      "polaroid",
      "single-famiice",
      "rest-area",
      "costco-shelf",
      "charge-spot"
    ]
  },
  {
    "name": "全家民權西路店",
    "pkey": "022169",
    "tel": "02-25994884",
    "POSTel": "02-77463120",
    "lat": 25.063023,
    "lng": 121.521138,
    "city": "台北市",
    "area": "中山區",
    "road": "民權西路",
    "address": "台北市中山區民權西路 35 號 1 樓",
    "service": [
      "sweat-potato",
      "single-famiice",
      "toilet",
      "rest-area",
      "baked-potato",
      "charge-spot",
      "recyclable-cup"
    ]
  },
  {
    "name": "全家中山民權店",
    "pkey": "020773",
    "tel": "02-25113070",
    "POSTel": "02-77520932",
    "lat": 25.062598,
    "lng": 121.521246,
    "city": "台北市",
    "area": "中山區",
    "road": "民權西路",
    "address": "台北市中山區民權西路 38 之 1 號 1 樓",
    "service": [
      "baked-potato",
      "charge-spot",
      "picard",
      "steam-fresh",
      "recyclable-cup",
      "classic-game-broadcast"
    ]
  },
  {
    "name": "全家新吉林店",
    "pkey": "018815",
    "tel": "02-25639757",
    "POSTel": "02-77287215",
    "lat": 25.062375,
    "lng": 121.53003,
    "city": "台北市",
    "area": "中山區",
    "road": "民權東路二段",
    "address": "台北市中山區民權東路二段 46 號 1 樓",
    "service": [
      "baked-potato",
      "picard",
      "spicy-egg",
      "classic-game-broadcast"
    ]
  },
  {
    "name": "全家錦民店",
    "pkey": "018272",
    "tel": "02-25078797",
    "POSTel": "02-77300712",
    "lat": 25.061138,
    "lng": 121.534897,
    "city": "台北市",
    "area": "中山區",
    "road": "民權東路二段",
    "address": "台北市中山區民權東路二段 152 巷 14 號",
    "service": [
      "sweat-potato",
      "rest-area",
      "two-famiice",
      "baked-potato",
      "charge-spot",
      "spicy-egg"
    ]
  },
  {
    "name": "全家江寧店",
    "pkey": "022168",
    "tel": "02-25171595",
    "POSTel": "02-77136523",
    "lat": 25.0622,
    "lng": 121.542647,
    "city": "台北市",
    "area": "中山區",
    "road": "民權東路三段",
    "address": "台北市中山區民權東路三段 64 號 1 樓",
    "service": [
      "sweat-potato",
      "single-famiice",
      "toilet",
      "baked-potato"
    ]
  },
  {
    "name": "全家長通店",
    "pkey": "021859",
    "tel": "02-25029136",
    "POSTel": "02-77095808",
    "lat": 25.054092,
    "lng": 121.534701,
    "city": "台北市",
    "area": "中山區",
    "road": "伊通街",
    "address": "台北市中山區伊通街 108 號 1 樓",
    "service": [
      "sweat-potato",
      "fresh-vegetables"
    ]
  },
  {
    "name": "全家金通店",
    "pkey": "020017",
    "tel": "02-25181554",
    "POSTel": "02-77136292",
    "lat": 25.051541,
    "lng": 121.53462,
    "city": "台北市",
    "area": "中山區",
    "road": "伊通街",
    "address": "台北市中山區伊通街 58 號",
    "service": [
      "sweat-potato",
      "rest-area",
      "two-famiice",
      "chubby-famiice",
      "baked-potato"
    ]
  },
  {
    "name": "全家德惠店",
    "pkey": "017273",
    "tel": "02-25953593",
    "POSTel": "02-77095755",
    "lat": 25.066734,
    "lng": 121.530302,
    "city": "台北市",
    "area": "中山區",
    "road": "吉林路",
    "address": "台北市中山區吉林路 448 號",
    "service": [
      "sweat-potato",
      "rest-area",
      "two-famiice"
    ]
  },
  {
    "name": "全家合江店",
    "pkey": "020173",
    "tel": "02-25185276",
    "POSTel": "02-77463827",
    "lat": 25.059271,
    "lng": 121.539236,
    "city": "台北市",
    "area": "中山區",
    "road": "合江街",
    "address": "台北市中山區合江街 87 號一樓",
    "service": [
      "sweat-potato",
      "toilet",
      "rest-area",
      "two-famiice",
      "charge-spot"
    ]
  },
  {
    "name": "全家朱崙店",
    "pkey": "016150",
    "tel": "02-27528615",
    "POSTel": "02-77095811",
    "lat": 25.050058,
    "lng": 121.542348,
    "city": "台北市",
    "area": "中山區",
    "road": "朱崙街",
    "address": "台北市中山區朱崙街 67 號",
    "service": [
      "sweat-potato",
      "rest-area"
    ]
  },
  {
    "name": "全家明水店",
    "pkey": "020806",
    "tel": "02-85097543",
    "POSTel": "02-77095797",
    "lat": 25.080138,
    "lng": 121.551168,
    "city": "台北市",
    "area": "中山區",
    "road": "明水路",
    "address": "台北市中山區明水路 581 巷 11 號 1 樓",
    "service": [
      "sweat-potato",
      "single-famiice",
      "rest-area",
      "costco-shelf",
      "charge-spot",
      "recyclable-cup"
    ]
  },
  {
    "name": "全家金林店",
    "pkey": "013729",
    "tel": "02-25629847",
    "POSTel": "02-77094898",
    "lat": 25.050426,
    "lng": 121.525082,
    "city": "台北市",
    "area": "中山區",
    "road": "林森北路",
    "address": "台北市中山區林森北路 109 號 1 樓",
    "service": [
      "sweat-potato",
      "single-famiice",
      "rest-area",
      "fresh-vegetables",
      "picard",
      "classic-game-broadcast"
    ]
  },
  {
    "name": "全家林森北路店",
    "pkey": "021202",
    "tel": "02-25230561",
    "POSTel": "02-77095758",
    "lat": 25.050435,
    "lng": 121.526776,
    "city": "台北市",
    "area": "中山區",
    "road": "林森北路",
    "address": "台北市中山區林森北路 119 巷 49、51 號",
    "service": [
      "sweat-potato",
      "rest-area",
      "fresh-vegetables",
      "charge-spot"
    ]
  },
  {
    "name": "全家長林店",
    "pkey": "017699",
    "tel": "02-25629310",
    "POSTel": "02-77095391",
    "lat": 25.049799,
    "lng": 121.526742,
    "city": "台北市",
    "area": "中山區",
    "road": "林森北路",
    "address": "台北市中山區林森北路 107 巷 54 號",
    "service": [
      "sweat-potato",
      "rest-area",
      "fresh-vegetables",
      "charge-spot",
      "picard",
      "classic-game-broadcast"
    ]
  },
  {
    "name": "全家復林店",
    "pkey": "021370",
    "tel": "02-25230478",
    "POSTel": "02-77094899",
    "lat": 25.05154,
    "lng": 121.525374,
    "city": "台北市",
    "area": "中山區",
    "road": "林森北路",
    "address": "台北市中山區林森北路 149-1、149-2 號 1 樓",
    "service": [
      "sweat-potato",
      "toilet",
      "rest-area",
      "fresh-vegetables",
      "charge-spot",
      "picard",
      "recyclable-cup",
      "classic-game-broadcast"
    ]
  },
  {
    "name": "全家金漾店",
    "pkey": "021521",
    "tel": "02-25219884",
    "POSTel": "02-77095382",
    "lat": 25.056151,
    "lng": 121.525358,
    "city": "台北市",
    "area": "中山區",
    "road": "林森北路",
    "address": "台北市中山區林森北路 308 號",
    "service": [
      "sweat-potato"
    ]
  },
  {
    "name": "全家新林森店",
    "pkey": "020132",
    "tel": "02-25977209",
    "POSTel": "02-77300716",
    "lat": 25.067598,
    "lng": 121.52559,
    "city": "台北市",
    "area": "中山區",
    "road": "林森北路",
    "address": "台北市中山區林森北路 630 號 1 樓",
    "service": [
      "sweat-potato",
      "polaroid",
      "single-famiice",
      "rest-area",
      "charge-spot",
      "recyclable-cup"
    ]
  },
  {
    "name": "全家錦富店",
    "pkey": "021520",
    "tel": "02-25684923",
    "POSTel": "02-77134951",
    "lat": 25.060015,
    "lng": 121.525412,
    "city": "台北市",
    "area": "中山區",
    "road": "林森北路",
    "address": "台北市中山區林森北路 428 號 1 樓",
    "service": [
      "sweat-potato",
      "toilet",
      "rest-area"
    ]
  },
  {
    "name": "全家林慶店",
    "pkey": "019161",
    "tel": "02-25672790",
    "POSTel": "02-77305394",
    "lat": 25.057878,
    "lng": 121.525365,
    "city": "台北市",
    "area": "中山區",
    "road": "林森北路",
    "address": "台北市中山區林森北路 376 號 1 樓",
    "service": [
      "sweat-potato",
      "rest-area",
      "two-famiice",
      "charge-spot",
      "spicy-egg",
      "classic-game-broadcast"
    ]
  },
  {
    "name": "全家新錦林店",
    "pkey": "022379",
    "tel": "02-26271008",
    "POSTel": "02-77092608",
    "lat": 25.059393,
    "lng": 121.526173,
    "city": "台北市",
    "area": "中山區",
    "road": "林森北路",
    "address": "台北市中山區林森北路 399 巷 24 號 1 樓",
    "service": []
  },
  {
    "name": "全家松京店",
    "pkey": "020757",
    "tel": "02-25715929",
    "POSTel": "02-77300015",
    "lat": 25.05236,
    "lng": 121.532796,
    "city": "台北市",
    "area": "中山區",
    "road": "松江路",
    "address": "台北市中山區松江路 122 號 1 樓",
    "service": [
      "two-famiice",
      "baked-potato",
      "smart-coffee",
      "steam-fresh",
      "classic-game-broadcast"
    ]
  },
  {
    "name": "全家權勝店",
    "pkey": "017355",
    "tel": "02-25935820",
    "POSTel": "02-77305911",
    "lat": 25.063798,
    "lng": 121.532988,
    "city": "台北市",
    "area": "中山區",
    "road": "松江路",
    "address": "台北市中山區松江路 400 號 1 樓及地下室",
    "service": [
      "sweat-potato",
      "rest-area",
      "charge-spot"
    ]
  },
  {
    "name": "全家松茂店",
    "pkey": "018109",
    "tel": "02-25028713",
    "POSTel": "02-77283475",
    "lat": 25.053603,
    "lng": 121.533337,
    "city": "台北市",
    "area": "中山區",
    "road": "松江路",
    "address": "台北市中山區松江路 127 之 1 號 1 樓及地下室",
    "service": [
      "sweat-potato",
      "single-famiice",
      "toilet",
      "charge-spot",
      "steam-fresh",
      "recyclable-cup",
      "classic-game-broadcast"
    ]
  },
  {
    "name": "全家松好店",
    "pkey": "018619",
    "tel": "02-25083831",
    "POSTel": "02-77231913",
    "lat": 25.048681,
    "lng": 121.533153,
    "city": "台北市",
    "area": "中山區",
    "road": "松江路",
    "address": "台北市中山區松江路 61 之 1 號 1 樓",
    "service": [
      "sweat-potato",
      "charge-spot",
      "classic-game-broadcast"
    ]
  },
  {
    "name": "全家松國店",
    "pkey": "020240",
    "tel": "02-25024147",
    "POSTel": "02-77163919",
    "lat": 25.066763,
    "lng": 121.533457,
    "city": "台北市",
    "area": "中山區",
    "road": "松江路",
    "address": "台北市中山區松江路 473 號 1 樓",
    "service": [
      "baked-potato",
      "costco-shelf",
      "charge-spot",
      "picard",
      "spicy-egg",
      "sohot-fresh-snacks"
    ]
  },
  {
    "name": "全家新松店",
    "pkey": "014662",
    "tel": "02-25715620",
    "POSTel": "02-77294930",
    "lat": 25.061226,
    "lng": 121.531777,
    "city": "台北市",
    "area": "中山區",
    "road": "松江路",
    "address": "台北市中山區松江路 330 巷 33 號",
    "service": [
      "sweat-potato",
      "rest-area",
      "charge-spot"
    ]
  },
  {
    "name": "全家光華店",
    "pkey": "017991",
    "tel": "02-25670175",
    "POSTel": "02-77096473",
    "lat": 25.04704,
    "lng": 121.5327,
    "city": "台北市",
    "area": "中山區",
    "road": "松江路",
    "address": "台北市中山區松江路 24 之 1 號",
    "service": [
      "sweat-potato",
      "rest-area",
      "two-famiice",
      "chubby-famiice",
      "classic-game-broadcast"
    ]
  },
  {
    "name": "全家正義店",
    "pkey": "020493",
    "tel": "02-25239542",
    "POSTel": "02-77094806",
    "lat": 25.048823,
    "lng": 121.526468,
    "city": "台北市",
    "area": "中山區",
    "road": "長安東路一段",
    "address": "台北市中山區長安東路一段 55 號",
    "service": [
      "sweat-potato",
      "polaroid",
      "rest-area",
      "two-famiice"
    ]
  },
  {
    "name": "全家遼寧店",
    "pkey": "018207",
    "tel": "02-27405515",
    "POSTel": "02-77095816",
    "lat": 25.048204,
    "lng": 121.542416,
    "city": "台北市",
    "area": "中山區",
    "road": "長安東路二段",
    "address": "台北市中山區長安東路二段 216 號",
    "service": [
      "sweat-potato",
      "toilet",
      "rest-area",
      "two-famiice",
      "charge-spot",
      "picard",
      "classic-game-broadcast"
    ]
  },
  {
    "name": "全家本部店",
    "pkey": "017071",
    "tel": "02-25173149",
    "POSTel": "02-77294474",
    "lat": 25.048538,
    "lng": 121.534908,
    "city": "台北市",
    "area": "中山區",
    "road": "長安東路二段",
    "address": "台北市中山區長安東路二段 99 號 1 樓及 2 樓",
    "service": [
      "sweat-potato",
      "polaroid",
      "toilet",
      "rest-area",
      "charge-spot",
      "classic-game-broadcast"
    ]
  },
  {
    "name": "全家欣欣店",
    "pkey": "021061",
    "tel": "02-25314871",
    "POSTel": "02-77096472",
    "lat": 25.054817,
    "lng": 121.527918,
    "city": "台北市",
    "area": "中山區",
    "road": "長春路",
    "address": "台北市中山區長春路 100 號 1 樓",
    "service": [
      "sweat-potato",
      "toilet",
      "rest-area",
      "baked-potato",
      "charge-spot",
      "picard",
      "spicy-egg",
      "classic-game-broadcast"
    ]
  },
  {
    "name": "全家長春店",
    "pkey": "022173",
    "tel": "02-25817796",
    "POSTel": "02-77094800",
    "lat": 25.054812,
    "lng": 121.525761,
    "city": "台北市",
    "area": "中山區",
    "road": "長春路",
    "address": "台北市中山區長春路 48 號",
    "service": [
      "sweat-potato",
      "single-famiice",
      "rest-area",
      "spicy-egg"
    ]
  },
  {
    "name": "全家春北店",
    "pkey": "021780",
    "tel": "02-87707194",
    "POSTel": "02-77286721",
    "lat": 25.054476,
    "lng": 121.543757,
    "city": "台北市",
    "area": "中山區",
    "road": "長春路",
    "address": "台北市中山區長春路 410 號 1 樓",
    "service": [
      "sweat-potato",
      "recyclable-cup",
      "classic-game-broadcast"
    ]
  },
  {
    "name": "全家長賓店",
    "pkey": "021058",
    "tel": "02-25221603",
    "POSTel": "02-77566380",
    "lat": 25.055046,
    "lng": 121.523934,
    "city": "台北市",
    "area": "中山區",
    "road": "長春路",
    "address": "台北市中山區長春路 15 號 1 樓",
    "service": [
      "two-famiice",
      "mont-blanc-famiice",
      "baked-potato",
      "fresh-brew-tea",
      "picard",
      "sohot-fresh-snacks",
      "classic-game-broadcast"
    ]
  },
  {
    "name": "全家中山捷運站店",
    "pkey": "021268",
    "tel": "02-25507063",
    "POSTel": "02-77566117",
    "lat": 25.052442,
    "lng": 121.520266,
    "city": "台北市",
    "area": "中山區",
    "road": "南京西路",
    "address": "台北市中山區南京西路 16 號 B1",
    "service": [
      "baked-potato",
      "steam-fresh"
    ]
  },
  {
    "name": "全家京林店",
    "pkey": "021619",
    "tel": "02-25674711",
    "POSTel": "02-77287015",
    "lat": 25.051889,
    "lng": 121.530705,
    "city": "台北市",
    "area": "中山區",
    "road": "南京東路二段",
    "address": "台北市中山區南京東路二段 72 號 1 樓、 72-2 號",
    "service": [
      "two-famiice",
      "baked-potato",
      "charge-spot",
      "picard",
      "spicy-egg",
      "recyclable-cup",
      "sohot-fresh-snacks",
      "classic-game-broadcast"
    ]
  },
  {
    "name": "全家興亞店",
    "pkey": "020131",
    "tel": "02-25312051",
    "POSTel": "02-77095431",
    "lat": 25.051916,
    "lng": 121.528996,
    "city": "台北市",
    "area": "中山區",
    "road": "南京東路二段",
    "address": "臺北市中山區南京東路 2 段 26 號",
    "service": [
      "sweat-potato"
    ]
  },
  {
    "name": "全家京貿店",
    "pkey": "018242",
    "tel": "02-25066873",
    "POSTel": "02-77095897",
    "lat": 25.052193,
    "lng": 121.538356,
    "city": "台北市",
    "area": "中山區",
    "road": "南京東路三段",
    "address": "台北市中山區南京東路三段 65 號",
    "service": [
      "sweat-potato",
      "single-famiice",
      "rest-area",
      "charge-spot"
    ]
  },
  {
    "name": "全家建國北路店",
    "pkey": "020174",
    "tel": "02-25170327",
    "POSTel": "02-77300507",
    "lat": 25.051262,
    "lng": 121.536356,
    "city": "台北市",
    "area": "中山區",
    "road": "建國北路一段",
    "address": "台北市中山區建國北路一段 146 號 1 樓",
    "service": [
      "baked-potato",
      "charge-spot",
      "picard",
      "recyclable-cup",
      "classic-game-broadcast"
    ]
  },
  {
    "name": "全家建錦店",
    "pkey": "017357",
    "tel": "02-25065447",
    "POSTel": "02-77303530",
    "lat": 25.0602,
    "lng": 121.53732,
    "city": "台北市",
    "area": "中山區",
    "road": "建國北路二段",
    "address": "台北市中山區建國北路二段 131 號 1 樓及部分地下室",
    "service": [
      "sweat-potato",
      "single-famiice",
      "charge-spot",
      "recyclable-cup"
    ]
  },
  {
    "name": "全家濱江店",
    "pkey": "013511",
    "tel": "02-25159357",
    "POSTel": "02-77095817",
    "lat": 25.066365,
    "lng": 121.535999,
    "city": "台北市",
    "area": "中山區",
    "road": "建國北路三段",
    "address": "台北市中山區建國北路三段 111 號 1 樓",
    "service": [
      "sweat-potato",
      "single-famiice",
      "rest-area",
      "charge-spot"
    ]
  },
  {
    "name": "全家新衡山店",
    "pkey": "015346",
    "tel": "02-25332342",
    "POSTel": "02-77300906",
    "lat": 25.083917,
    "lng": 121.538093,
    "city": "台北市",
    "area": "中山區",
    "road": "通北街",
    "address": "台北市中山區通北街 111 號",
    "service": [
      "sweat-potato",
      "rest-area",
      "costco-shelf",
      "charge-spot",
      "picard"
    ]
  },
  {
    "name": "全家新復店",
    "pkey": "021188",
    "tel": "02-25097685",
    "POSTel": "02-77467841",
    "lat": 25.066095,
    "lng": 121.542588,
    "city": "台北市",
    "area": "中山區",
    "road": "復興北路",
    "address": "台北市中山區復興北路 514 巷 35 號",
    "service": [
      "sweat-potato",
      "single-famiice",
      "rest-area",
      "fresh-vegetables",
      "charge-spot"
    ]
  },
  {
    "name": "全家南京復興店",
    "pkey": "021075",
    "tel": "02-27151377",
    "POSTel": "02-77523428",
    "lat": 25.053173,
    "lng": 121.543789,
    "city": "台北市",
    "area": "中山區",
    "road": "復興北路",
    "address": "台北市中山區復興北路 154 號 1F",
    "service": [
      "single-famiice",
      "baked-potato",
      "charge-spot",
      "picard",
      "spicy-egg",
      "classic-game-broadcast"
    ]
  },
  {
    "name": "全家金復店",
    "pkey": "022443",
    "tel": "02-28924021",
    "POSTel": "02-",
    "lat": 25.060392,
    "lng": 121.543957,
    "city": "台北市",
    "area": "中山區",
    "road": "復興北路",
    "address": "台北市中山區復興北路 356 號 1 樓",
    "service": [
      "single-famiice",
      "sohot-fresh-snacks"
    ]
  },
  {
    "name": "全家興德店",
    "pkey": "015566",
    "tel": "02-87725312",
    "POSTel": "02-77095819",
    "lat": 25.045506,
    "lng": 121.543668,
    "city": "台北市",
    "area": "中山區",
    "road": "復興南路一段",
    "address": "台北市中山區復興南路一段 38 號",
    "service": [
      "sweat-potato",
      "rest-area"
    ]
  },
  {
    "name": "全家鑫通店",
    "pkey": "021522",
    "tel": "02-25817485",
    "POSTel": "02-77305710",
    "lat": 25.050605,
    "lng": 121.527818,
    "city": "台北市",
    "area": "中山區",
    "road": "新生北路一段",
    "address": "台北市中山區新生北路一段 116 號",
    "service": [
      "sweat-potato",
      "rest-area"
    ]
  },
  {
    "name": "全家美林店",
    "pkey": "017730",
    "tel": "02-25678382",
    "POSTel": "02-77095399",
    "lat": 25.056139,
    "lng": 121.525868,
    "city": "台北市",
    "area": "中山區",
    "road": "新生北路二段",
    "address": "台北市中山區新生北路二段 62 巷 38-3 號",
    "service": [
      "sweat-potato",
      "polaroid",
      "toilet",
      "rest-area",
      "fresh-vegetables",
      "costco-shelf",
      "classic-game-broadcast"
    ]
  },
  {
    "name": "全家新晴店",
    "pkey": "020532",
    "tel": "02-25955820",
    "POSTel": "02-77095761",
    "lat": 25.064891,
    "lng": 121.52306,
    "city": "台北市",
    "area": "中山區",
    "road": "農安街",
    "address": "台北市中山區農安街 4-1 號",
    "service": [
      "sweat-potato",
      "rest-area"
    ]
  },
  {
    "name": "全家新稻江店",
    "pkey": "018666",
    "tel": "02-25994657",
    "POSTel": "02-77134723",
    "lat": 25.064761,
    "lng": 121.529297,
    "city": "台北市",
    "area": "中山區",
    "road": "農安街",
    "address": "台北市中山區農安街 86 號 1 樓",
    "service": [
      "sweat-potato",
      "toilet",
      "rest-area"
    ]
  },
  {
    "name": "全家松農店",
    "pkey": "019008",
    "tel": "02-25028032",
    "POSTel": "02-77463806",
    "lat": 25.064609,
    "lng": 121.533959,
    "city": "台北市",
    "area": "中山區",
    "road": "農安街",
    "address": "台北市中山區農安街 160 號",
    "service": [
      "sweat-potato",
      "rest-area",
      "baked-potato",
      "charge-spot"
    ]
  },
  {
    "name": "全家農安店",
    "pkey": "018088",
    "tel": "02-25042520",
    "POSTel": "02-77095760",
    "lat": 25.06479,
    "lng": 121.534926,
    "city": "台北市",
    "area": "中山區",
    "road": "農安街",
    "address": "台北市中山區農安街 249 號",
    "service": [
      "sweat-potato",
      "rest-area",
      "fresh-vegetables",
      "two-famiice",
      "chubby-famiice",
      "charge-spot",
      "recyclable-cup"
    ]
  },
  {
    "name": "全家新農店",
    "pkey": "018243",
    "tel": "02-25968538",
    "POSTel": "02-77094801",
    "lat": 25.064808,
    "lng": 121.526198,
    "city": "台北市",
    "area": "中山區",
    "road": "農安街",
    "address": "台北市中山區恆安里農安街 26 之 3 號一樓",
    "service": [
      "sweat-potato",
      "polaroid",
      "single-famiice",
      "toilet",
      "rest-area",
      "baked-potato",
      "charge-spot",
      "picard"
    ]
  },
  {
    "name": "全家光輝店",
    "pkey": "022491",
    "tel": "02-25955703",
    "POSTel": "02-77095759",
    "lat": 25.066585,
    "lng": 121.526479,
    "city": "台北市",
    "area": "中山區",
    "road": "德惠街",
    "address": "台北市中山區晴光里德惠街 34 之 2 號一樓",
    "service": [
      "sweat-potato",
      "rest-area",
      "fresh-vegetables",
      "baked-potato",
      "classic-game-broadcast"
    ]
  },
  {
    "name": "全家新德城店",
    "pkey": "021069",
    "tel": "02-25995447",
    "POSTel": "02-77301480",
    "lat": 25.066625,
    "lng": 121.524672,
    "city": "台北市",
    "area": "中山區",
    "road": "德惠街",
    "address": "台北市中山區德惠街 16-7 號",
    "service": [
      "sweat-potato",
      "single-famiice",
      "rest-area"
    ]
  },
  {
    "name": "全家德林店",
    "pkey": "017907",
    "tel": "02-25961560",
    "POSTel": "02-77294937",
    "lat": 25.06668,
    "lng": 121.531905,
    "city": "台北市",
    "area": "中山區",
    "road": "德惠街",
    "address": "台北市中山區德惠街 173 號",
    "service": [
      "sweat-potato",
      "rest-area",
      "charge-spot"
    ]
  },
  {
    "name": "全家撫順店",
    "pkey": "018931",
    "tel": "02-25927495",
    "POSTel": "02-77136526",
    "lat": 25.063558,
    "lng": 121.520853,
    "city": "台北市",
    "area": "中山區",
    "road": "撫順街",
    "address": "台北市中山區撫順街 12 之 2 號 1 樓",
    "service": [
      "sweat-potato",
      "rest-area",
      "two-famiice",
      "baked-potato",
      "classic-game-broadcast"
    ]
  },
  {
    "name": "全家樂群店",
    "pkey": "015060",
    "tel": "02-85095167",
    "POSTel": "02-77095805",
    "lat": 25.079595,
    "lng": 121.558474,
    "city": "台北市",
    "area": "中山區",
    "road": "樂群二路",
    "address": "台北市中山區樂群二路 186 號",
    "service": [
      "sweat-potato",
      "fresh-vegetables"
    ]
  },
  {
    "name": "全家美麗店",
    "pkey": "017888",
    "tel": "02-85011290",
    "POSTel": "02-77095803",
    "lat": 25.079748,
    "lng": 121.556824,
    "city": "台北市",
    "area": "中山區",
    "road": "樂群二路",
    "address": "台北市中山區樂群二路 142 號 1 樓",
    "service": [
      "sweat-potato",
      "single-famiice",
      "baked-potato",
      "charge-spot",
      "classic-game-broadcast"
    ]
  },
  {
    "name": "全家時代廣場店",
    "pkey": "020128",
    "tel": "02-85015684",
    "POSTel": "02-77304720",
    "lat": 25.081236,
    "lng": 121.560663,
    "city": "台北市",
    "area": "中山區",
    "road": "樂群二路",
    "address": "台北市中山區樂群二路 265 巷 20 號",
    "service": [
      "baked-potato",
      "charge-spot",
      "picard",
      "spicy-egg",
      "sohot-fresh-snacks",
      "classic-game-broadcast"
    ]
  },
  {
    "name": "全家興安店",
    "pkey": "018376",
    "tel": "02-25052013",
    "POSTel": "02-77095820",
    "lat": 25.056201,
    "lng": 121.542324,
    "city": "台北市",
    "area": "中山區",
    "road": "興安街",
    "address": "台北市中山區興安街 57 號",
    "service": [
      "sweat-potato",
      "rest-area",
      "two-famiice",
      "costco-shelf",
      "charge-spot"
    ]
  },
  {
    "name": "全家錦江店",
    "pkey": "020048",
    "tel": "02-25638875",
    "POSTel": "02-77096475",
    "lat": 25.060419,
    "lng": 121.532157,
    "city": "台北市",
    "area": "中山區",
    "road": "錦州街",
    "address": "台北市中山區錦州街 215 號",
    "service": [
      "sweat-potato",
      "rest-area",
      "fresh-vegetables",
      "two-famiice",
      "charge-spot"
    ]
  },
  {
    "name": "全家新北大店",
    "pkey": "021692",
    "tel": "02-25172305",
    "POSTel": "02-77464123",
    "lat": 25.060303,
    "lng": 121.542451,
    "city": "台北市",
    "area": "中山區",
    "road": "錦州街",
    "address": "台北市中山區錦州街 427 號",
    "service": [
      "sweat-potato",
      "single-famiice",
      "rest-area",
      "baked-potato",
      "charge-spot",
      "picard",
      "spicy-egg"
    ]
  },
  {
    "name": "全家錦西店",
    "pkey": "022650",
    "tel": "02-25673231",
    "POSTel": "02-77095831",
    "lat": 25.060275,
    "lng": 121.521667,
    "city": "台北市",
    "area": "中山區",
    "road": "錦西街",
    "address": "台北市中山區錦西街 8 號",
    "service": [
      "sweat-potato",
      "rest-area",
      "baked-potato",
      "recyclable-cup"
    ]
  },
  {
    "name": "全家中興店",
    "pkey": "017058",
    "tel": "02-25012043",
    "POSTel": "02-77095822",
    "lat": 25.056277,
    "lng": 121.540605,
    "city": "台北市",
    "area": "中山區",
    "road": "龍江路",
    "address": "台北市中山區龍江路 201 號 1F",
    "service": [
      "sweat-potato"
    ]
  },
  {
    "name": "全家鑫豐店",
    "pkey": "015663",
    "tel": "02-25157030",
    "POSTel": "02-77462067",
    "lat": 25.065936,
    "lng": 121.537996,
    "city": "台北市",
    "area": "中山區",
    "road": "龍江路",
    "address": "台北市中山區龍江路 356 巷 72 號",
    "service": [
      "sweat-potato",
      "rest-area",
      "charge-spot"
    ]
  },
  {
    "name": "全家新南京店",
    "pkey": "022313",
    "tel": "02-87725827",
    "POSTel": "02-77397217",
    "lat": 25.051424,
    "lng": 121.540555,
    "city": "台北市",
    "area": "中山區",
    "road": "龍江路",
    "address": "台北市中山區龍江路 95 號 1 樓",
    "service": [
      "sweat-potato",
      "rest-area",
      "baked-potato",
      "steam-fresh"
    ]
  },
  {
    "name": "全家榮星店",
    "pkey": "020176",
    "tel": "02-25169569",
    "POSTel": "02-77095823",
    "lat": 25.065891,
    "lng": 121.540849,
    "city": "台北市",
    "area": "中山區",
    "road": "龍江路",
    "address": "台北市中山區龍江路 352 號",
    "service": [
      "sweat-potato",
      "rest-area",
      "fresh-vegetables",
      "baked-potato",
      "charge-spot",
      "picard"
    ]
  },
  {
    "name": "全家龍京店",
    "pkey": "018620",
    "tel": "02-25082793",
    "POSTel": "02-77305636",
    "lat": 25.052669,
    "lng": 121.540322,
    "city": "台北市",
    "area": "中山區",
    "road": "龍江路",
    "address": "台北市中山區龍江路 102 號 1 樓",
    "service": [
      "single-famiice",
      "mont-blanc-famiice",
      "charge-spot",
      "fresh-brew-tea",
      "recyclable-cup",
      "classic-game-broadcast"
    ]
  },
  {
    "name": "全家金磚店",
    "pkey": "021368",
    "tel": "02-25994347",
    "POSTel": "02-77230280",
    "lat": 25.065333,
    "lng": 121.524514,
    "city": "台北市",
    "area": "中山區",
    "road": "雙城街",
    "address": "台北市中山區雙城街 19 巷 2 號",
    "service": [
      "sweat-potato",
      "rest-area",
      "baked-potato",
      "charge-spot"
    ]
  },
  {
    "name": "全家雙林店",
    "pkey": "016078",
    "tel": "02-25992453",
    "POSTel": "02-77095782",
    "lat": 25.063211,
    "lng": 121.524311,
    "city": "台北市",
    "area": "中山區",
    "road": "雙城街",
    "address": "台北市中山區雙城街 2 之 2 號",
    "service": [
      "sweat-potato",
      "rest-area",
      "fresh-vegetables",
      "charge-spot",
      "spicy-egg"
    ]
  },
  {
    "name": "全家雙城店",
    "pkey": "021588",
    "tel": "02-25996056",
    "POSTel": "02-77095780",
    "lat": 25.064541,
    "lng": 121.524221,
    "city": "台北市",
    "area": "中山區",
    "road": "雙城街",
    "address": "台北市中山區雙城街 12 之 1 號",
    "service": [
      "sweat-potato",
      "single-famiice"
    ]
  },
  {
    "name": "全家鑫德店",
    "pkey": "022643",
    "tel": "02-87717609",
    "POSTel": "02-77137290",
    "lat": 25.048073,
    "lng": 121.54657,
    "city": "台北市",
    "area": "松山區",
    "road": "八德路二段",
    "address": "臺北市松山區八德路二段 400 號",
    "service": [
      "sweat-potato",
      "toilet",
      "rest-area",
      "fresh-vegetables",
      "two-famiice",
      "baked-potato",
      "costco-shelf",
      "charge-spot",
      "smart-coffee",
      "spicy-egg",
      "sohot-fresh-snacks"
    ]
  },
  {
    "name": "全家中崙店",
    "pkey": "015638",
    "tel": "02-25776466",
    "POSTel": "02-77230360",
    "lat": 25.046288,
    "lng": 121.552595,
    "city": "台北市",
    "area": "松山區",
    "road": "八德路三段",
    "address": "台北市松山區八德路三段 74 巷 43 號",
    "service": [
      "sweat-potato",
      "rest-area",
      "charge-spot"
    ]
  },
  {
    "name": "全家台發店",
    "pkey": "018139",
    "tel": "02-25781936",
    "POSTel": "02-77285114",
    "lat": 25.04811,
    "lng": 121.551527,
    "city": "台北市",
    "area": "松山區",
    "road": "八德路三段",
    "address": "台北市松山區八德路三段 30 號壹樓（如附圖）",
    "service": [
      "sweat-potato",
      "toilet",
      "charge-spot",
      "fresh-brew-tea",
      "picard",
      "sohot-fresh-snacks",
      "classic-game-broadcast"
    ]
  },
  {
    "name": "全家中發店",
    "pkey": "018851",
    "tel": "02-25793662",
    "POSTel": "02-77287279",
    "lat": 25.047777,
    "lng": 121.552445,
    "city": "台北市",
    "area": "松山區",
    "road": "八德路三段",
    "address": "台北市松山區八德路三段 74 巷 10 號 1、2 樓如附圖",
    "service": [
      "charge-spot",
      "classic-game-broadcast"
    ]
  },
  {
    "name": "全家松慈店",
    "pkey": "020556",
    "tel": "02-27466249",
    "POSTel": "02-77137862",
    "lat": 25.049901,
    "lng": 121.576343,
    "city": "台北市",
    "area": "松山區",
    "road": "八德路四段",
    "address": "台北市松山區八德路四段 676 號",
    "service": [
      "two-famiice",
      "chubby-famiice",
      "baked-potato",
      "charge-spot",
      "picard",
      "classic-game-broadcast"
    ]
  },
  {
    "name": "全家寶清店",
    "pkey": "022159",
    "tel": "02-27532857",
    "POSTel": "02-77230427",
    "lat": 25.049818,
    "lng": 121.572405,
    "city": "台北市",
    "area": "松山區",
    "road": "八德路四段",
    "address": "台北市松山區八德路四段 598 號 1 樓",
    "service": [
      "sweat-potato",
      "rest-area"
    ]
  },
  {
    "name": "全家復盛店",
    "pkey": "016137",
    "tel": "02-27619127",
    "POSTel": "02-77230441",
    "lat": 25.048254,
    "lng": 121.559211,
    "city": "台北市",
    "area": "松山區",
    "road": "八德路四段",
    "address": "台北市松山區八德路四段 40 號、 42 號",
    "service": [
      "sweat-potato",
      "polaroid",
      "toilet",
      "rest-area",
      "baked-potato"
    ]
  },
  {
    "name": "全家三富店",
    "pkey": "017205",
    "tel": "02-27677510",
    "POSTel": "02-77230483",
    "lat": 25.061049,
    "lng": 121.563339,
    "city": "台北市",
    "area": "松山區",
    "road": "三民路",
    "address": "台北市松山區三民路 148 號",
    "service": [
      "sweat-potato",
      "costco-shelf",
      "charge-spot"
    ]
  },
  {
    "name": "全家京民店",
    "pkey": "013794",
    "tel": "02-27422080",
    "POSTel": "02-77179549",
    "lat": 25.052166,
    "lng": 121.563917,
    "city": "台北市",
    "area": "松山區",
    "road": "三民路",
    "address": "台北市松山區三民路 6 號＋ B1",
    "service": [
      "sweat-potato",
      "single-famiice",
      "toilet",
      "rest-area",
      "charge-spot",
      "recyclable-cup",
      "classic-game-broadcast"
    ]
  },
  {
    "name": "全家常興店",
    "pkey": "016801",
    "tel": "02-25464600",
    "POSTel": "02-77230471",
    "lat": 25.064245,
    "lng": 121.544865,
    "city": "台北市",
    "area": "松山區",
    "road": "五常街",
    "address": "台北市松山區五常街 364 號 1 樓",
    "service": [
      "sweat-potato",
      "toilet",
      "rest-area",
      "fresh-vegetables",
      "costco-shelf",
      "charge-spot"
    ]
  },
  {
    "name": "全家微風店",
    "pkey": "015587",
    "tel": "02-87719880",
    "POSTel": "02-77230418",
    "lat": 25.045349,
    "lng": 121.546099,
    "city": "台北市",
    "area": "松山區",
    "road": "市民大道四段",
    "address": "台北市松山區市民大道四段 51 號 1 樓",
    "service": [
      "sweat-potato",
      "charge-spot"
    ]
  },
  {
    "name": "全家豐興店",
    "pkey": "022175",
    "tel": "02-25471001",
    "POSTel": "02-77095393",
    "lat": 25.056968,
    "lng": 121.547117,
    "city": "台北市",
    "area": "松山區",
    "road": "民生東路三段",
    "address": "台北市松山區民生東路三段 130 巷 5 弄 22 號",
    "service": [
      "sweat-potato",
      "toilet",
      "rest-area",
      "baked-potato",
      "charge-spot",
      "spicy-egg",
      "classic-game-broadcast"
    ]
  },
  {
    "name": "全家豐禾店",
    "pkey": "012220",
    "tel": "02-27126702",
    "POSTel": "02-77230367",
    "lat": 25.056974,
    "lng": 121.546337,
    "city": "台北市",
    "area": "松山區",
    "road": "民生東路三段",
    "address": "台北市松山區民生東路三段 130 巷 5 弄 2 號",
    "service": [
      "sweat-potato",
      "polaroid",
      "toilet",
      "rest-area",
      "baked-potato",
      "charge-spot"
    ]
  },
  {
    "name": "全家豐華店",
    "pkey": "013024",
    "tel": "02-27123226",
    "POSTel": "02-77230476",
    "lat": 25.058587,
    "lng": 121.546023,
    "city": "台北市",
    "area": "松山區",
    "road": "民生東路三段",
    "address": "台北市松山區民生東路三段 113 巷 6 弄 1 號一樓",
    "service": [
      "sweat-potato",
      "rest-area",
      "baked-potato",
      "charge-spot",
      "smart-coffee",
      "spicy-egg",
      "recyclable-cup"
    ]
  },
  {
    "name": "全家昇東店",
    "pkey": "018901",
    "tel": "02-27491649",
    "POSTel": "02-77179061",
    "lat": 25.059231,
    "lng": 121.566063,
    "city": "台北市",
    "area": "松山區",
    "road": "民生東路五段",
    "address": "台北市松山區民生東路五段 197 號",
    "service": [
      "sweat-potato",
      "rest-area",
      "two-famiice",
      "charge-spot"
    ]
  },
  {
    "name": "全家東豐店",
    "pkey": "014959",
    "tel": "02-27612771",
    "POSTel": "02-77463306",
    "lat": 25.058545,
    "lng": 121.55689,
    "city": "台北市",
    "area": "松山區",
    "road": "民生東路五段",
    "address": "台北市松山區民生東路五段 37 號",
    "service": [
      "sweat-potato",
      "rest-area",
      "costco-shelf",
      "charge-spot"
    ]
  },
  {
    "name": "全家富泰店",
    "pkey": "020127",
    "tel": "02-27460211",
    "POSTel": "02-77300039",
    "lat": 25.058297,
    "lng": 121.564708,
    "city": "台北市",
    "area": "松山區",
    "road": "民生東路五段",
    "address": "台北市松山區民生東路五段 204-3 號一樓",
    "service": [
      "baked-potato",
      "charge-spot",
      "fresh-brew-tea",
      "picard",
      "classic-game-broadcast"
    ]
  },
  {
    "name": "全家松民店",
    "pkey": "016542",
    "tel": "02-37652608",
    "POSTel": "02-77463155",
    "lat": 25.059087,
    "lng": 121.562479,
    "city": "台北市",
    "area": "松山區",
    "road": "民生東路五段",
    "address": "台北市松山區民生東路五段 159 號",
    "service": [
      "sweat-potato",
      "rest-area",
      "baked-potato",
      "spicy-egg"
    ]
  },
  {
    "name": "全家鑫民復店",
    "pkey": "022442",
    "tel": "02-25473532",
    "POSTel": "02-",
    "lat": 25.057583,
    "lng": 121.55312,
    "city": "台北市",
    "area": "松山區",
    "road": "民生東路四段",
    "address": "台北市松山區民生東路四段 80 巷 1 弄 2 號",
    "service": []
  },
  {
    "name": "全家中央店",
    "pkey": "016262",
    "tel": "02-25460351",
    "POSTel": "02-77230370",
    "lat": 25.058141,
    "lng": 121.551972,
    "city": "台北市",
    "area": "松山區",
    "road": "民生東路四段",
    "address": "台北市松山區民生東路四段 95 號",
    "service": [
      "sweat-potato",
      "single-famiice",
      "baked-potato",
      "spicy-egg",
      "classic-game-broadcast"
    ]
  },
  {
    "name": "全家興北店",
    "pkey": "015862",
    "tel": "02-27150977",
    "POSTel": "02-77230401",
    "lat": 25.063435,
    "lng": 121.545049,
    "city": "台北市",
    "area": "松山區",
    "road": "民權東路三段",
    "address": "台北市松山區民權東路三段 103 巷 15—1 號",
    "service": [
      "sweat-potato",
      "single-famiice",
      "toilet",
      "rest-area",
      "charge-spot"
    ]
  },
  {
    "name": "全家新民有店",
    "pkey": "017122",
    "tel": "02-87129937",
    "POSTel": "02-77230201",
    "lat": 25.060729,
    "lng": 121.547748,
    "city": "台北市",
    "area": "松山區",
    "road": "民權東路三段",
    "address": "台北市松山區民權東路三段 160 巷 11 號",
    "service": [
      "sweat-potato",
      "single-famiice",
      "rest-area",
      "baked-potato",
      "charge-spot"
    ]
  },
  {
    "name": "全家復北店",
    "pkey": "022458",
    "tel": "02-25468878",
    "POSTel": "02-77231821",
    "lat": 25.061904,
    "lng": 121.544806,
    "city": "台北市",
    "area": "松山區",
    "road": "民權東路三段",
    "address": "台北市松山區民權東路三段 104 號壹樓及地下室",
    "service": [
      "sweat-potato",
      "charge-spot",
      "spicy-egg",
      "steam-fresh",
      "classic-game-broadcast"
    ]
  },
  {
    "name": "全家松指部店",
    "pkey": "020425",
    "tel": "02-25475302",
    "POSTel": "02-25475626",
    "lat": 25.062161,
    "lng": 121.555797,
    "city": "台北市",
    "area": "松山區",
    "road": "民權東路四段",
    "address": "臺北市松山區民權東路四段 121 號（松指部）",
    "service": [
      "picard"
    ]
  },
  {
    "name": "全家大理店",
    "pkey": "019540",
    "tel": "02-27473064",
    "POSTel": "02-77230375",
    "lat": 25.049846,
    "lng": 121.559931,
    "city": "台北市",
    "area": "松山區",
    "road": "光復北路",
    "address": "台北市松山區光復北路 11 巷 50 號 1 樓",
    "service": [
      "sweat-potato",
      "rest-area"
    ]
  },
  {
    "name": "全家新德光店",
    "pkey": "021543",
    "tel": "02-25780506",
    "POSTel": "02-77305723",
    "lat": 25.046203,
    "lng": 121.554312,
    "city": "台北市",
    "area": "松山區",
    "road": "光復南路",
    "address": "台北市松山區光復南路 32 巷 46-4 號",
    "service": [
      "sweat-potato",
      "rest-area",
      "two-famiice",
      "charge-spot"
    ]
  },